MessageType,Provider,LatitudeDegrees,LongitudeDegrees,AltitudeMeters,SpeedMps,AccuracyMeters,BearingDegrees,UnixTimeMillis,SpeedAccuracyMps,BearingAccuracyDegrees,elapsedRealtimeNanos,VerticalAccuracyMeters
Fix,GT,37.3813053000,-121.8964600000,-14.337049056975559,0.0,0.1,2.495819,1694126880443,,,,
Fix,GT,37.3813053000,-121.8964600000,-14.337049056975559,0.0,0.1,2.4958653,1694126881443,,,,
Fix,GT,37.3813053000,-121.8964600000,-14.33704948425293,0.001,0.1,2.4958994,1694126882443,,,,
Fix,GT,37.3813053000,-121.8964600000,-14.33704948425293,0.001,0.1,2.4963963,1694126883443,,,,
Fix,GT,37.3813053000,-121.8964600000,-14.33704948425293,0.001,0.1,2.4963872,1694126884443,,,,
Fix,GT,37.3813053000,-121.8964600000,-14.33704948425293,0.0012331737,0.1,2.4964771,1694126885443,,,,
Fix,GT,37.3813053000,-121.8964600000,-14.33704948425293,0.0012331737,0.1,2.4966114,1694126886443,,,,
Fix,GT,37.3813053000,-121.8964600000,-14.337049056975559,0.00118104,0.1,2.496155,1694126887443,,,,
Fix,GT,37.3813053000,-121.8964600000,-14.33704948425293,0.0005629308,0.1,2.4962463,1694126888443,,,,
Fix,GT,37.3813053000,-121.8964600000,-14.3370499115303,0.00043706922,0.1,2.4960303,1694126889443,,,,
Fix,GT,37.3813053000,-121.8964600000,-14.337049056975559,0.00087413855,0.1,2.496136,1694126890443,,,,
Fix,GT,37.3813053000,-121.8964600000,-14.33704948425293,0.0,0.1,2.4959133,1694126891443,,,,
Fix,GT,37.3813053000,-121.8964600000,-14.337049056975559,0.0007961041,0.1,2.4961405,1694126892443,,,,
Fix,GT,37.3813053000,-121.8964600000,-14.3370499115303,0.0,0.1,2.4959683,1694126893443,,,,
Fix,GT,37.3813053000,-121.8964600000,-14.337049056975559,0.0005629305,0.1,2.4959629,1694126894443,,,,
Fix,GT,37.3813053000,-121.8964600000,-14.33704948425293,0.001,0.1,2.4959998,1694126895443,,,,
Fix,GT,37.3813053000,-121.8964600000,-14.33704948425293,0.001,0.1,2.4959555,1694126896443,,,,
Fix,GT,37.3813053000,-121.8964600000,-14.337049056975559,0.0014370696,0.1,2.495769,1694126897443,,,,
Fix,GT,37.3813053000,-121.8964600000,-14.337049056975559,0.0006181096,0.1,2.4961839,1694126898443,,,,
Fix,GT,37.3813053000,-121.8964600000,-14.3370499115303,0.00043706948,0.1,2.496156,1694126899443,,,,
Fix,GT,37.3813053000,-121.8964600000,-14.337049056975559,0.0014142136,0.1,2.4957716,1694126900443,,,,
Fix,GT,37.3813053000,-121.8964600000,-14.33704948425293,0.0014142136,0.1,2.495396,1694126901443,,,,
Fix,GT,37.3813053000,-121.8964600000,-14.336050033569336,0.0005629307,0.1,2.494138,1694126902443,,,,
Fix,GT,37.3813053000,-121.8964600000,-14.335050056429196,0.0117743695,0.1,2.4929833,1694126903443,,,,
Fix,GT,37.3813039000,-121.8964601000,-14.329612695899442,0.30653262,0.1,2.4965081,1694126904443,,,,
Fix,GT,37.3813004000,-121.8964602000,-14.318176186888053,0.4275786,0.1,2.5084481,1694126905443,,,,
Fix,GT,37.3812961000,-121.8964605000,-14.303174990649666,0.48837346,0.1,2.5152671,1694126906443,,,,
Fix,GT,37.3812912000,-121.8964608000,-14.289175052102053,0.65576994,0.1,2.376182,1694126907443,,,,
Fix,GT,37.3812845000,-121.8964625000,-14.274612380506369,0.8203231,0.1,358.67224,1694126908443,,,,
Fix,GT,37.3812773000,-121.8964657000,-14.260612866643271,0.81556123,0.1,349.07574,1694126909443,,,,
Fix,GT,37.3812689000,-121.8964674000,-14.245176230727253,0.9460225,0.1,337.92194,1694126910443,,,,
Fix,GT,37.3812593000,-121.8964669000,-14.227612025171794,1.0608704,0.1,325.1963,1694126911443,,,,
Fix,GT,37.3812491000,-121.8964634000,-14.225050396473705,1.0183997,0.1,311.52136,1694126912443,,,,
Fix,GT,37.3812428000,-121.8964594000,-14.23048595521172,0.37682253,0.1,302.28366,1694126913443,,,,
Fix,GT,37.3812422000,-121.8964588000,-14.22961187991541,0.0055800043,0.1,301.22934,1694126914443,,,,
Fix,GT,37.3812422000,-121.8964589000,-14.231487207955354,0.024114072,0.1,300.888,1694126915443,,,,
Fix,GT,37.3812440000,-121.8964627000,-14.2306118673024,0.7832314,0.1,300.92032,1694126916443,,,,
Fix,GT,37.3812487000,-121.8964744000,-14.230612291390912,1.5421128,0.1,298.83548,1694126917443,,,,
Fix,GT,37.3812544000,-121.8964949000,-14.239612957093584,2.1957748,0.1,292.65793,1694126918443,,,,
Fix,GT,37.3812589000,-121.8965212000,-14.215989979075175,2.4644122,0.1,284.83844,1694126919443,,,,
Fix,GT,37.3812613000,-121.8965498000,-14.185486840365229,2.6026344,0.1,278.18097,1694126920443,,,,
Fix,GT,37.3812626000,-121.8965807000,-14.184612341099466,2.8861492,0.1,274.29642,1694126921443,,,,
Fix,GT,37.3812632000,-121.8966153000,-14.17417570465534,3.21318,0.1,271.73703,1694126922443,,,,
Fix,GT,37.3812637000,-121.8966531000,-14.154738404266254,3.4519181,0.1,271.16455,1694126923443,,,,
Fix,GT,37.3812643000,-121.8966938000,-14.137738205901996,3.6828752,0.1,271.10654,1694126924443,,,,
Fix,GT,37.3812649000,-121.8967349000,-14.109426987094565,3.5858374,0.1,271.16043,1694126925443,,,,
Fix,GT,37.3812656000,-121.8967756000,-14.083301474446671,3.680442,0.1,271.09436,1694126926443,,,,
Fix,GT,37.3812662000,-121.8968183000,-14.05717470544164,3.8739645,0.1,271.01938,1694126927443,,,,
Fix,GT,37.3812669000,-121.8968624000,-14.029797624235698,3.8868597,0.1,271.00586,1694126928443,,,,
Fix,GT,37.3812672000,-121.8969055000,-14.020486879227064,3.7406507,0.1,270.62302,1694126929443,,,,
Fix,GT,37.3812675000,-121.8969469000,-14.012611877561682,3.5824223,0.1,270.5843,1694126930443,,,,
Fix,GT,37.3812681000,-121.8969864000,-13.999175096030882,3.41355,0.1,271.0085,1694126931443,,,,
Fix,GT,37.3812688000,-121.8970240000,-13.986175561775326,3.2704897,0.1,271.35638,1694126932443,,,,
Fix,GT,37.3812696000,-121.8970603000,-13.972175085839979,3.1530874,0.1,271.4179,1694126933443,,,,
Fix,GT,37.3812703000,-121.8970954000,-13.961612653615703,3.0735664,0.1,271.4009,1694126934443,,,,
Fix,GT,37.3812711000,-121.8971297000,-13.956049503205719,3.0227802,0.1,271.62073,1694126935443,,,,
Fix,GT,37.3812717000,-121.8971636000,-13.939612340512667,2.9720817,0.1,271.47342,1694126936443,,,,
Fix,GT,37.3812723000,-121.8971969000,-13.92117502873731,2.9284298,0.1,271.14526,1694126937443,,,,
Fix,GT,37.3812728000,-121.8972298000,-13.911486673709987,2.9094214,0.1,271.36908,1694126938443,,,,
Fix,GT,37.3812739000,-121.8972627000,-13.901612770552049,2.936883,0.1,272.0,1694126939443,,,,
Fix,GT,37.3812749000,-121.8972963000,-13.887738203577214,3.0147748,0.1,271.9907,1694126940443,,,,
Fix,GT,37.3812756000,-121.8973310000,-13.873612355711884,3.1354787,0.1,271.69025,1694126941443,,,,
Fix,GT,37.3812763000,-121.8973670000,-13.866612386229463,3.202028,0.1,271.3958,1694126942443,,,,
Fix,GT,37.3812771000,-121.8974028000,-13.843738118937125,3.158277,0.1,271.7134,1694126943443,,,,
Fix,GT,37.3812782000,-121.8974378000,-13.809738134912664,3.007265,0.1,272.0728,1694126944443,,,,
Fix,GT,37.3812792000,-121.8974697000,-13.779738402120302,2.6316154,0.1,272.2572,1694126945443,,,,
Fix,GT,37.3812800000,-121.8974974000,-13.770049638448654,2.2940261,0.1,272.03635,1694126946443,,,,
Fix,GT,37.3812804000,-121.8975226000,-13.760301517123821,2.1980956,0.1,271.6891,1694126947443,,,,
Fix,GT,37.3812810000,-121.8975466000,-13.720863766368382,2.049815,0.1,271.80334,1694126948443,,,,
Fix,GT,37.3812817000,-121.8975693000,-13.689301418180094,2.0182028,0.1,272.075,1694126949443,,,,
Fix,GT,37.3812824000,-121.8975926000,-13.643864093769992,2.1086245,0.1,272.15106,1694126950443,,,,
Fix,GT,37.3812830000,-121.8976169000,-13.61061199855115,2.1999817,0.1,271.78906,1694126951443,,,,
Fix,GT,37.3812834000,-121.8976423000,-13.583738706999469,2.2628062,0.1,271.35764,1694126952443,,,,
Fix,GT,37.3812837000,-121.8976679000,-13.551301062479638,2.196827,0.1,271.0566,1694126953443,,,,
Fix,GT,37.3812839000,-121.8976892000,-13.543360734768726,1.625838,0.1,270.87885,1694126954443,,,,
Fix,GT,37.3812841000,-121.8977088000,-13.546049118041992,1.8343611,0.1,270.83044,1694126955443,,,,
Fix,GT,37.3812842000,-121.8977306000,-13.52786351491801,2.006544,0.1,270.3354,1694126956443,,,,
Fix,GT,37.3812807000,-121.8977529000,-13.460989452317705,1.8947365,0.1,261.89658,1694126957443,,,,
Fix,GT,37.3812702000,-121.8977706000,-13.385990044521122,1.7589093,0.1,243.33382,1694126958443,,,,
Fix,GT,37.3812552000,-121.8977815000,-13.321427692577657,1.8023119,0.1,222.57181,1694126959443,,,,
Fix,GT,37.3812374000,-121.8977881000,-13.254990874725905,2.0691206,0.1,205.45789,1694126960443,,,,
Fix,GT,37.3812163000,-121.8977904000,-13.206175290403223,2.46665,0.1,191.11171,1694126961443,,,,
Fix,GT,37.3811921000,-121.8977905000,-13.177738556855303,2.8324869,0.1,182.66301,1694126962443,,,,
Fix,GT,37.3811657000,-121.8977902000,-13.157738659910251,2.9654202,0.1,180.46417,1694126963443,,,,
Fix,GT,37.3811387000,-121.8977905000,-13.13342742335189,3.002091,0.1,180.43265,1694126964443,,,,
Fix,GT,37.3811116000,-121.8977905000,-13.094738398075549,3.014563,0.1,179.96805,1694126965443,,,,
Fix,GT,37.3810845000,-121.8977902000,-13.06530179406991,2.9974716,0.1,179.69164,1694126966443,,,,
Fix,GT,37.3810593000,-121.8977900000,-13.014301226253224,2.3187501,0.1,179.67877,1694126967443,,,,
Fix,GT,37.3810455000,-121.8977898000,-12.990048975048978,0.6886865,0.1,179.64389,1694126968443,,,,
Fix,GT,37.3810412000,-121.8977898000,-12.994612258137721,0.610131,0.1,179.60301,1694126969443,,,,
Fix,GT,37.3810316000,-121.8977898000,-12.991175138053734,1.6260533,0.1,179.9546,1694126970443,,,,
Fix,GT,37.3810137000,-121.8977934000,-12.968301282928849,2.3134155,0.1,186.66324,1694126971443,,,,
Fix,GT,37.3809941000,-121.8978059000,-12.932175508289447,2.5129051,0.1,202.40372,1694126972443,,,,
Fix,GT,37.3809792000,-121.8978287000,-12.913301395053509,2.6419654,0.1,224.91245,1694126973443,,,,
Fix,GT,37.3809736000,-121.8978601000,-12.88673783150199,3.0825336,0.1,251.32292,1694126974443,,,,
Fix,GT,37.3809726000,-121.8978991000,-12.896797822032056,3.8606706,0.1,265.4722,1694126975443,,,,
Fix,GT,37.3809706000,-121.8979463000,-12.925486612734403,4.4705963,0.1,266.5074,1694126976443,,,,
Fix,GT,37.3809676000,-121.8979990000,-12.962360557018002,4.8196025,0.1,265.94772,1694126977443,,,,
Fix,GT,37.3809644000,-121.8980537000,-12.997360790610117,4.8744173,0.1,266.16483,1694126978443,,,,
Fix,GT,37.3809617000,-121.8981087000,-13.040671544140963,4.8902354,0.1,266.54776,1694126979443,,,,
Fix,GT,37.3809592000,-121.8981639000,-13.104234840610673,4.901069,0.1,266.76324,1694126980443,,,,
Fix,GT,37.3809564000,-121.8982192000,-13.152109240247,4.9214387,0.1,266.62042,1694126981443,,,,
Fix,GT,37.3809537000,-121.8982748000,-13.21767158321191,4.930191,0.1,266.56277,1694126982443,,,,
Fix,GT,37.3809513000,-121.8983302000,-13.28410920847773,4.908953,0.1,266.9974,1694126983443,,,,
Fix,GT,37.3809489000,-121.8983854000,-13.347235259960598,4.8712626,0.1,267.12875,1694126984443,,,,
Fix,GT,37.3809468000,-121.8984401000,-13.402109237326385,4.8205824,0.1,267.14728,1694126985443,,,,
Fix,GT,37.3809444000,-121.8984936000,-13.45148663478858,4.6171713,0.1,267.01425,1694126986443,,,,
Fix,GT,37.3809425000,-121.8985425000,-13.502923523011532,4.0378695,0.1,267.4234,1694126987443,,,,
Fix,GT,37.3809447000,-121.8985849000,-13.538672073193595,3.6447878,0.1,274.6884,1694126988443,,,,
Fix,GT,37.3809561000,-121.8986223000,-13.597797473620574,3.4893708,0.1,290.35114,1694126989443,,,,
Fix,GT,37.3809757000,-121.8986520000,-13.63636032009029,3.4005504,0.1,308.32544,1694126990443,,,,
Fix,GT,37.3810009000,-121.8986737000,-13.676797526989418,3.3799236,0.1,323.92648,1694126991443,,,,
Fix,GT,37.3810294000,-121.8986865000,-13.71967182726496,3.4344506,0.1,338.99313,1694126992443,,,,
Fix,GT,37.3810618000,-121.8986917000,-13.756361028023207,3.8640652,0.1,351.2967,1694126993443,,,,
Fix,GT,37.3810983000,-121.8986952000,-13.781049728393555,4.240756,0.1,355.37854,1694126994443,,,,
Fix,GT,37.3811375000,-121.8986980000,-13.756739052855863,4.478527,0.1,356.74658,1694126995443,,,,
Fix,GT,37.3811785000,-121.8987010000,-13.702990445719934,4.6313977,0.1,356.75378,1694126996443,,,,
Fix,GT,37.3812207000,-121.8987044000,-13.626552985829107,4.720234,0.1,356.43814,1694126997443,,,,
Fix,GT,37.3812628000,-121.8987081000,-13.54411596081377,4.6269207,0.1,356.30563,1694126998443,,,,
Fix,GT,37.3813039000,-121.8987103000,-13.471553655160989,4.537641,0.1,358.15613,1694126999443,,,,
Fix,GT,37.3813450000,-121.8987109000,-13.460360947677543,4.620377,0.1,359.04865,1694127000443,,,,
Fix,GT,37.3813875000,-121.8987124000,-13.497360383837787,4.84698,0.1,358.48004,1694127001443,,,,
Fix,GT,37.3814325000,-121.8987146000,-13.51461228525011,5.142079,0.1,357.88538,1694127002443,,,,
Fix,GT,37.3814802000,-121.8987170000,-13.559234745392132,5.447509,0.1,357.92737,1694127003443,,,,
Fix,GT,37.3815300000,-121.8987193000,-13.58167175544827,5.5882316,0.1,357.96796,1694127004443,,,,
Fix,GT,37.3815807000,-121.8987226000,-13.627671819277964,5.669329,0.1,357.00598,1694127005443,,,,
Fix,GT,37.3816317000,-121.8987261000,-13.662486132714491,5.6488004,0.1,357.12103,1694127006443,,,,
Fix,GT,37.3816826000,-121.8987287000,-13.667857322711598,5.664775,0.1,357.8807,1694127007443,,,,
Fix,GT,37.3817338000,-121.8987310000,-13.663923773589545,5.6983743,0.1,358.0877,1694127008443,,,,
Fix,GT,37.3817855000,-121.8987336000,-13.636612022334077,5.798766,0.1,357.83392,1694127009443,,,,
Fix,GT,37.3818383000,-121.8987367000,-13.609738736385054,5.935328,0.1,357.5588,1694127010443,,,,
Fix,GT,37.3818928000,-121.8987397000,-13.623168565271243,6.1921673,0.1,357.56107,1694127011443,,,,
Fix,GT,37.3819495000,-121.8987428000,-13.7535467179014,6.334836,0.1,357.3947,1694127012443,,,,
Fix,GT,37.3820060000,-121.8987460000,-13.733049392700195,6.18695,0.1,357.57956,1694127013443,,,,
Fix,GT,37.3820610000,-121.8987491000,-13.712360528587993,6.043303,0.1,357.56995,1694127014443,,,,
Fix,GT,37.3821158000,-121.8987523000,-13.741109385177225,6.202393,0.1,357.40723,1694127015443,,,,
Fix,GT,37.3821728000,-121.8987559000,-13.792109027281128,6.420212,0.1,357.19473,1694127016443,,,,
Fix,GT,37.3822307000,-121.8987595000,-13.842923260153782,6.4467545,0.1,357.14447,1694127017443,,,,
Fix,GT,37.3822887000,-121.8987634000,-13.910108231138963,6.461073,0.1,357.01077,1694127018443,,,,
Fix,GT,37.3823470000,-121.8987675000,-13.994420564077359,6.490238,0.1,356.91965,1694127019443,,,,
Fix,GT,37.3824055000,-121.8987714000,-14.06510891233063,6.48853,0.1,357.0293,1694127020443,,,,
Fix,GT,37.3824633000,-121.8987758000,-14.111235608827826,6.376137,0.1,356.5181,1694127021443,,,,
Fix,GT,37.3825200000,-121.8987811000,-14.157989956781506,6.2192345,0.1,355.67896,1694127022443,,,,
Fix,GT,37.3825734000,-121.8987870000,-14.19810917253767,5.5988455,0.1,354.65106,1694127023443,,,,
Fix,GT,37.3826189000,-121.8987927000,-14.214176094619887,4.4828906,0.1,354.19083,1694127024443,,,,
Fix,GT,37.3826531000,-121.8987972000,-14.173990174697565,3.247635,0.1,354.05356,1694127025443,,,,
Fix,GT,37.3826784000,-121.8988006000,-14.107486769913521,2.2365386,0.1,353.82095,1694127026443,,,,
Fix,GT,37.3826979000,-121.8988034000,-14.116546213942172,2.4255562,0.1,353.7328,1694127027443,,,,
Fix,GT,37.3827244000,-121.8988068000,-14.184982881025803,3.4903967,0.1,354.2594,1694127028443,,,,
Fix,GT,37.3827583000,-121.8988034000,-14.067678779050425,4.0548744,0.1,6.105324,1694127029443,,,,
Fix,GT,37.3827912000,-121.8987795000,-14.094109075382107,4.4520707,0.1,31.341179,1694127030443,,,,
Fix,GT,37.3828176000,-121.8987382000,-14.173671750917265,4.915898,0.1,51.73742,1694127031443,,,,
Fix,GT,37.3828403000,-121.8986881000,-14.220235398269438,5.3023944,0.1,61.0691,1694127032443,,,,
Fix,GT,37.3828581000,-121.8986313000,-14.246924377505565,5.5018888,0.1,70.08036,1694127033443,,,,
Fix,GT,37.3828681000,-121.8985696000,-14.25898323746162,5.8441916,0.1,79.82723,1694127034443,,,,
Fix,GT,37.3828723000,-121.8984992000,-14.338109088851297,6.7069416,0.1,86.63725,1694127035443,,,,
Fix,GT,37.3828745000,-121.8984193000,-14.413109327360758,7.331416,0.1,88.39402,1694127036443,,,,
Fix,GT,37.3828751000,-121.8983370000,-14.445234818409062,7.136064,0.1,89.98726,1694127037443,,,,
Fix,GT,37.3828729000,-121.8982623000,-14.469612613912489,5.9123316,0.1,92.97018,1694127038443,,,,
Fix,GT,37.3828693000,-121.8982038000,-14.457486613992785,4.503175,0.1,94.233246,1694127039443,,,,
Fix,GT,37.3828764000,-121.8981607000,-14.487109255863516,3.3475919,0.1,75.43542,1694127040443,,,,
Fix,GT,37.3829014000,-121.8981385000,-14.491923837843672,3.1452098,0.1,38.210876,1694127041443,,,,
Fix,GT,37.3829343000,-121.8981416000,-14.53567179698689,3.6810267,0.1,357.89578,1694127042443,,,,
Fix,GT,37.3829636000,-121.8981718000,-14.6113605627487,4.264368,0.1,320.51666,1694127043443,,,,
Fix,GT,37.3829791000,-121.8982217000,-14.628049850463867,4.9802322,0.1,289.4416,1694127044443,,,,
Fix,GT,37.3829827000,-121.8982841000,-14.639487210100157,6.023673,0.1,273.9631,1694127045443,,,,
Fix,GT,37.3829835000,-121.8983591000,-14.638301376630238,7.2551208,0.1,270.1554,1694127046443,,,,
Fix,GT,37.3829817000,-121.8984473000,-14.59399069373626,8.309003,0.1,268.15533,1694127047443,,,,
Fix,GT,37.3829777000,-121.8985442000,-14.52024161557381,8.747122,0.1,266.2454,1694127048443,,,,
Fix,GT,37.3829663000,-121.8986427000,-14.421116258425968,8.846779,0.1,259.31143,1694127049443,,,,
Fix,GT,37.3829460000,-121.8987395000,-14.330552944885767,8.814541,0.1,254.9189,1694127050443,,,,
Fix,GT,37.3829279000,-121.8988352000,-14.250553021656515,8.587442,0.1,257.91504,1694127051443,,,,
Fix,GT,37.3829147000,-121.8989288000,-14.104183017218645,8.320984,0.1,260.52505,1694127052443,,,,
Fix,GT,37.3829020000,-121.8990213000,-14.019678995112486,8.331649,0.1,259.71512,1694127053443,,,,
Fix,GT,37.3828871000,-121.8991136000,-13.971804578905449,8.35774,0.1,258.43097,1694127054443,,,,
Fix,GT,37.3828711000,-121.8992063000,-14.03822864220686,8.424866,0.1,257.49216,1694127055443,,,,
Fix,GT,37.3828532000,-121.8992987000,-14.184857905975434,8.409559,0.1,255.90862,1694127056443,,,,
Fix,GT,37.3828333000,-121.8993897000,-14.267856702587835,8.242662,0.1,254.13991,1694127057443,,,,
Fix,GT,37.3828106000,-121.8994765000,-14.37485663222131,7.9367666,0.1,250.50462,1694127058443,,,,
Fix,GT,37.3827809000,-121.8995574000,-14.456108675491663,7.805235,0.1,243.25316,1694127059443,,,,
Fix,GT,37.3827462000,-121.8996332000,-14.53654627116174,7.6198015,0.1,240.13745,1694127060443,,,,
Fix,GT,37.3827146000,-121.8997076000,-14.565108876567933,7.33628,0.1,242.8198,1694127061443,,,,
Fix,GT,37.3826875000,-121.8997818000,-14.646672283184273,7.1393847,0.1,246.24637,1694127062443,,,,
Fix,GT,37.3826627000,-121.8998546000,-14.712420088011356,6.9065723,0.1,246.72055,1694127063443,,,,
Fix,GT,37.3826374000,-121.8999255000,-14.787612015332314,6.8439207,0.1,245.4634,1694127064443,,,,
Fix,GT,37.3826098000,-121.8999969000,-14.834361082739065,7.235989,0.1,243.69856,1694127065443,,,,
Fix,GT,37.3825789000,-121.9000717000,-14.863798189766158,7.686556,0.1,242.25658,1694127066443,,,,
Fix,GT,37.3825448000,-121.9001499000,-14.891612547811974,8.108447,0.1,241.08409,1694127067443,,,,
Fix,GT,37.3825072000,-121.9002327000,-14.91773792725246,8.790089,0.1,239.98398,1694127068443,,,,
Fix,GT,37.3824654000,-121.9003218000,-14.956671279918368,9.501915,0.1,239.56625,1694127069443,,,,
Fix,GT,37.3824201000,-121.9004175000,-14.996797161495266,10.187935,0.1,239.33154,1694127070443,,,,
Fix,GT,37.3823719000,-121.9005186000,-15.043923877898408,10.672731,0.1,239.00885,1694127071443,,,,
Fix,GT,37.3823214000,-121.9006240000,-15.078360561794284,11.071474,0.1,238.95915,1694127072443,,,,
Fix,GT,37.3822688000,-121.9007331000,-15.071049690246582,11.498767,0.1,238.93814,1694127073443,,,,
Fix,GT,37.3822145000,-121.9008462000,-15.040553003058449,11.865038,0.1,239.09138,1694127074443,,,,
Fix,GT,37.3821591000,-121.9009620000,-14.940864060272986,12.024613,0.1,239.08578,1694127075443,,,,
Fix,GT,37.3821032000,-121.9010779000,-14.839930440399257,11.904113,0.1,238.67816,1694127076443,,,,
Fix,GT,37.3820481000,-121.9011918000,-14.726493261844496,11.673184,0.1,239.03525,1694127077443,,,,
Fix,GT,37.3819961000,-121.9013046000,-14.57036732769302,11.432762,0.1,240.61865,1694127078443,,,,
Fix,GT,37.3819484000,-121.9014176000,-14.4889831611099,11.256371,0.1,243.26215,1694127079443,,,,
Fix,GT,37.3819074000,-121.9015323000,-14.476619628575577,11.00259,0.1,247.26607,1694127080443,,,,
Fix,GT,37.3818736000,-121.9016447000,-14.321804030602578,10.2384615,0.1,250.4847,1694127081443,,,,
Fix,GT,37.3818472000,-121.9017488000,-14.261116024237936,9.095501,0.1,253.21823,1694127082443,,,,
Fix,GT,37.3818274000,-121.9018414000,-14.163864169139487,7.8784,0.1,255.85759,1694127083443,,,,
Fix,GT,37.3818138000,-121.9019195000,-14.161174808437409,6.2685814,0.1,258.3569,1694127084443,,,,
Fix,GT,37.3818055000,-121.9019798000,-14.138175467189399,4.5527296,0.1,260.5811,1694127085443,,,,
Fix,GT,37.3818008000,-121.9020233000,-14.11861320698199,3.2704334,0.1,262.159,1694127086443,,,,
Fix,GT,37.3817980000,-121.9020530000,-14.115049362182617,2.0876498,0.1,263.06763,1694127087443,,,,
Fix,GT,37.3817965000,-121.9020700000,-14.116049345849461,0.92862374,0.1,263.46866,1694127088443,,,,
Fix,GT,37.3817962000,-121.9020743000,-14.121797180420259,0.0365514,0.1,263.56372,1694127089443,,,,
Fix,GT,37.3817962000,-121.9020743000,-14.125049591064453,0.0017991373,0.1,263.5658,1694127090443,,,,
Fix,GT,37.3817962000,-121.9020743000,-14.126049995422363,0.0014370626,0.1,263.5619,1694127091443,,,,
Fix,GT,37.3817962000,-121.9020743000,-14.126049574433267,0.0,0.1,263.5627,1694127092443,,,,
Fix,GT,37.3817962000,-121.9020743000,-14.126049995422363,0.0,0.1,-96.43727,1694127093443,,,,
Fix,GT,37.3817962000,-121.9020743000,-14.127049025087075,0.0,0.1,263.56274,1694127094443,,,,
Fix,GT,37.3817962000,-121.9020743000,-14.12605041641146,0.0,0.1,263.5627,1694127095443,,,,
Fix,GT,37.3817962000,-121.9020743000,-14.12605041641146,0.0,0.1,263.56253,1694127096443,,,,
Fix,GT,37.3817962000,-121.9020743000,-14.126049995422363,0.00056293764,0.1,263.56277,1694127097443,,,,
Fix,GT,37.3817962000,-121.9020743000,-14.12605041641146,0.00056293764,0.1,263.5628,1694127098443,,,,
Fix,GT,37.3817962000,-121.9020743000,-14.12605041641146,0.0,0.1,263.56296,1694127099443,,,,
Fix,GT,37.3817962000,-121.9020743000,-14.126049574433267,0.0,0.1,263.563,1694127100443,,,,
Fix,GT,37.3817962000,-121.9020743000,-14.12605041641146,0.0,0.1,263.56262,1694127101443,,,,
Fix,GT,37.3817962000,-121.9020743000,-14.126049995422363,0.0011810372,0.1,263.56293,1694127102443,,,,
Fix,GT,37.3817962000,-121.9020743000,-14.126049995422363,0.00087412435,0.1,263.5627,1694127103443,,,,
Fix,GT,37.3817962000,-121.9020743000,-14.12605041641146,0.0,0.1,263.56274,1694127104443,,,,
Fix,GT,37.3817962000,-121.9020743000,-14.126049995422363,0.001,0.1,263.56265,1694127105443,,,,
Fix,GT,37.3817962000,-121.9020743000,-14.126049995422363,0.0014142136,0.1,263.56305,1694127106443,,,,
Fix,GT,37.3817962000,-121.9020743000,-14.126049995422363,0.0014142136,0.1,263.563,1694127107443,,,,
Fix,GT,37.3817962000,-121.9020743000,-14.126049995422363,0.001,0.1,263.56247,1694127108443,,,,
Fix,GT,37.3817962000,-121.9020743000,-14.126049995422363,0.001,0.1,263.56293,1694127109443,,,,
Fix,GT,37.3817962000,-121.9020743000,-14.126049995422363,0.001,0.1,263.56284,1694127110443,,,,
Fix,GT,37.3817962000,-121.9020743000,-14.126049995422363,0.0005629382,0.1,263.56326,1694127111443,,,,
Fix,GT,37.3817962000,-121.9020743000,-14.126049995422363,0.0005629383,0.1,263.56284,1694127112443,,,,
Fix,GT,37.3817962000,-121.9020743000,-14.126049995422363,0.0,0.1,263.56284,1694127113443,,,,
Fix,GT,37.3817962000,-121.9020743000,-14.126049995422363,0.0,0.1,263.5623,1694127114443,,,,
Fix,GT,37.3817962000,-121.9020743000,-14.126049995422363,0.0,0.1,263.56262,1694127115443,,,,
Fix,GT,37.3817962000,-121.9020743000,-14.126049995422363,0.0,0.1,263.56265,1694127116443,,,,
Fix,GT,37.3817962000,-121.9020743000,-14.12605041641146,0.00043706183,0.1,263.56256,1694127117443,,,,
Fix,GT,37.3817962000,-121.9020743000,-14.12605041641146,0.0012331767,0.1,263.56223,1694127118443,,,,
Fix,GT,37.3817962000,-121.9020743000,-14.126049995422363,0.0014142136,0.1,263.56232,1694127119443,,,,
Fix,GT,37.3817962000,-121.9020743000,-14.126049995422363,0.0,0.1,263.56235,1694127120443,,,,
Fix,GT,37.3817962000,-121.9020743000,-14.126049995422363,0.0,0.1,263.56216,1694127121443,,,,
Fix,GT,37.3817962000,-121.9020743000,-14.126049995422363,0.00056293816,0.1,263.56232,1694127122443,,,,
Fix,GT,37.3817962000,-121.9020743000,-14.12605041641146,0.001,0.1,263.56232,1694127123443,,,,
Fix,GT,37.3817962000,-121.9020743000,-14.126049995422363,0.00043706206,0.1,263.56238,1694127124443,,,,
Fix,GT,37.3817962000,-121.9020743000,-14.12605041641146,0.0,0.1,263.56238,1694127125443,,,,
Fix,GT,37.3817962000,-121.9020743000,-14.12605041641146,0.0,0.1,263.56226,1694127126443,,,,
Fix,GT,37.3817962000,-121.9020743000,-14.126049995422363,0.0015629381,0.1,263.56235,1694127127443,,,,
Fix,GT,37.3817962000,-121.9020743000,-14.126049995422363,0.0015402382,0.1,263.5622,1694127128443,,,,
Fix,GT,37.3817962000,-121.9020743000,-14.12605041641146,0.001,0.1,263.56244,1694127129443,,,,
Fix,GT,37.3817962000,-121.9020743000,-14.12605041641146,0.0012331767,0.1,263.5625,1694127130443,,,,
Fix,GT,37.3817962000,-121.9020743000,-14.12605041641146,0.0012331767,0.1,263.5624,1694127131443,,,,
Fix,GT,37.3817962000,-121.9020743000,-14.126049995422363,0.001,0.1,263.56247,1694127132443,,,,
Fix,GT,37.3817962000,-121.9020743000,-14.126049995422363,0.0021782257,0.1,263.562,1694127133443,,,,
Fix,GT,37.3817962000,-121.9020743000,-14.126049995422363,0.00043706174,0.1,263.56277,1694127134443,,,,
Fix,GT,37.3817962000,-121.9020743000,-14.12605041641146,0.001,0.1,263.56168,1694127135443,,,,
Fix,GT,37.3817962000,-121.9020743000,-14.12605041641146,0.001,0.1,263.56216,1694127136443,,,,
Fix,GT,37.3817962000,-121.9020743000,-14.126049995422363,0.0014142136,0.1,263.56204,1694127137443,,,,
Fix,GT,37.3817962000,-121.9020743000,-14.126049995422363,0.001,0.1,263.56177,1694127138443,,,,
Fix,GT,37.3817962000,-121.9020743000,-14.126049995422363,0.0017734144,0.1,263.5617,1694127139443,,,,
Fix,GT,37.3817962000,-121.9020743000,-14.12605041641146,0.001,0.1,263.56204,1694127140443,,,,
Fix,GT,37.3817962000,-121.9020743000,-14.126049995422363,0.001,0.1,263.5619,1694127141443,,,,
Fix,GT,37.3817962000,-121.9020743000,-14.12605041641146,0.0012587687,0.1,263.56198,1694127142443,,,,
Fix,GT,37.3817962000,-121.9020743000,-14.12605041641146,0.0021031764,0.1,263.56168,1694127143443,,,,
Fix,GT,37.3817962000,-121.9020743000,-14.126049995422363,0.00043706156,0.1,263.5618,1694127144443,,,,
Fix,GT,37.3817962000,-121.9020743000,-14.126049995422363,0.001,0.1,263.56186,1694127145443,,,,
Fix,GT,37.3817962000,-121.9020743000,-14.126049995422363,0.001,0.1,263.5617,1694127146443,,,,
Fix,GT,37.3817962000,-121.9020743000,-14.12605041641146,0.001,0.1,263.56177,1694127147443,,,,
Fix,GT,37.3817962000,-121.9020743000,-14.126049995422363,0.001,0.1,263.56155,1694127148443,,,,
Fix,GT,37.3817962000,-121.9020743000,-14.126049995422363,0.001,0.1,263.5613,1694127149443,,,,
Fix,GT,37.3817962000,-121.9020743000,-14.12605041641146,0.001,0.1,263.56128,1694127150443,,,,
Fix,GT,37.3817962000,-121.9020743000,-14.126049995422363,0.0012331768,0.1,263.56125,1694127151443,,,,
Fix,GT,37.3817962000,-121.9020743000,-14.12605041641146,0.0018768673,0.1,263.56128,1694127152443,,,,
Fix,GT,37.3817962000,-121.9020743000,-14.126049995422363,0.00043706127,0.1,263.56094,1694127153443,,,,
Fix,GT,37.3817962000,-121.9020743000,-14.126049995422363,0.001,0.1,263.5604,1694127154443,,,,
Fix,GT,37.3817962000,-121.9020743000,-14.126049995422363,0.002,0.1,263.56042,1694127155443,,,,
Fix,GT,37.3817962000,-121.9020743000,-14.12605041641146,0.0011810367,0.1,263.56082,1694127156443,,,,
Fix,GT,37.3817962000,-121.9020743000,-14.126049995422363,0.00056293904,0.1,263.56094,1694127157443,,,,
Fix,GT,37.3817962000,-121.9020743000,-14.126049995422363,0.001,0.1,263.56125,1694127158443,,,,
Fix,GT,37.3817962000,-121.9020743000,-14.126049995422363,0.0006180976,0.1,263.5612,1694127159443,,,,
Fix,GT,37.3817962000,-121.9020743000,-14.12605041641146,0.000437061,0.1,263.56113,1694127160443,,,,
Fix,GT,37.3817962000,-121.9020743000,-14.12605041641146,0.0012587702,0.1,263.5605,1694127161443,,,,
Fix,GT,37.3817962000,-121.9020743000,-14.126049995422363,0.002132892,0.1,263.56183,1694127162443,,,,
Fix,GT,37.3817962000,-121.9020743000,-14.126049995422363,0.0,0.1,263.56155,1694127163443,,,,
Fix,GT,37.3817962000,-121.9020743000,-14.126049995422363,0.00056293927,0.1,263.5612,1694127164443,,,,
Fix,GT,37.3817962000,-121.9020743000,-14.12605041641146,0.0010000002,0.1,263.56097,1694127165443,,,,
Fix,GT,37.3817962000,-121.9020743000,-14.126049995422363,0.0011810365,0.1,263.56097,1694127166443,,,,
Fix,GT,37.3817962000,-121.9020743000,-14.126049995422363,0.0005629394,0.1,263.56094,1694127167443,,,,
Fix,GT,37.3817962000,-121.9020743000,-14.12605041641146,0.0,0.1,263.56064,1694127168443,,,,
Fix,GT,37.3817962000,-121.9020743000,-14.126049995422363,0.0006180971,0.1,263.56073,1694127169443,,,,
Fix,GT,37.3817962000,-121.9020743000,-14.12605041641146,0.0,0.1,263.561,1694127170443,,,,
Fix,GT,37.3817962000,-121.9020743000,-14.126049995422363,0.0005629393,0.1,263.56113,1694127171443,,,,
Fix,GT,37.3817962000,-121.9020743000,-14.126049574433267,0.001,0.1,263.56113,1694127172443,,,,
Fix,GT,37.3817962000,-121.9020743000,-14.126049574433267,0.0,0.1,263.56107,1694127173443,,,,
Fix,GT,37.3817962000,-121.9020743000,-14.12605041641146,0.00056293956,0.1,263.56094,1694127174443,,,,
Fix,GT,37.3817962000,-121.9020743000,-14.126049995422363,0.0012331773,0.1,263.56107,1694127175443,,,,
Fix,GT,37.3817962000,-121.9020743000,-14.12605041641146,0.00061809673,0.1,263.56094,1694127176443,,,,
Fix,GT,37.3817962000,-121.9020743000,-14.126049995422363,0.0005629396,0.1,263.561,1694127177443,,,,
Fix,GT,37.3817962000,-121.9020743000,-14.126049995422363,0.0011810365,0.1,263.5611,1694127178443,,,,
Fix,GT,37.3817962000,-121.9020743000,-14.126049574433267,0.0006180966,0.1,263.5614,1694127179443,,,,
Fix,GT,37.3817962000,-121.9020743000,-14.12605041641146,0.0012331774,0.1,263.56146,1694127180443,,,,
Fix,GT,37.3817962000,-121.9020743000,-14.126049574433267,0.0014142136,0.1,263.56125,1694127181443,,,,
Fix,GT,37.3817962000,-121.9020743000,-14.126049995422363,0.001,0.1,263.5617,1694127182443,,,,
Fix,GT,37.3817962000,-121.9020743000,-14.126049995422363,0.0011810362,0.1,263.5614,1694127183443,,,,
Fix,GT,37.3817962000,-121.9020743000,-14.126049574433267,0.0006180963,0.1,263.5616,1694127184443,,,,
Fix,GT,37.3817962000,-121.9020743000,-14.126049995422363,0.0007961173,0.1,263.5615,1694127185443,,,,
Fix,GT,37.3817962000,-121.9020743000,-14.126049995422363,0.001,0.1,263.5615,1694127186443,,,,
Fix,GT,37.3817962000,-121.9020743000,-14.12605041641146,0.0,0.1,263.56143,1694127187443,,,,
Fix,GT,37.3817962000,-121.9020743000,-14.126049574433267,0.001,0.1,263.56143,1694127188443,,,,
Fix,GT,37.3817962000,-121.9020743000,-14.12605041641146,0.00043705993,0.1,263.56168,1694127189443,,,,
Fix,GT,37.3817962000,-121.9020743000,-14.126049995422363,0.00043705985,0.1,263.56152,1694127190443,,,,
Fix,GT,37.3817962000,-121.9020743000,-14.126049995422363,0.0005629403,0.1,263.5613,1694127191443,,,,
Fix,GT,37.3817962000,-121.9020743000,-14.126049995422363,0.0005629403,0.1,263.5612,1694127192443,,,,
Fix,GT,37.3817962000,-121.9020743000,-14.126049995422363,0.001181036,0.1,263.56125,1694127193443,,,,
Fix,GT,37.3817962000,-121.9020743000,-14.12605041641146,0.001,0.1,263.5614,1694127194443,,,,
Fix,GT,37.3817962000,-121.9020743000,-14.126049995422363,0.00043705947,0.1,263.5614,1694127195443,,,,
Fix,GT,37.3817962000,-121.9020743000,-14.126049995422363,0.0,0.1,263.5613,1694127196443,,,,
Fix,GT,37.3817962000,-121.9020743000,-14.12605041641146,0.001,0.1,263.5611,1694127197443,,,,
Fix,GT,37.3817962000,-121.9020743000,-14.126049995422363,0.0,0.1,263.56146,1694127198443,,,,
Fix,GT,37.3817962000,-121.9020743000,-14.126049574433267,0.00043705915,0.1,263.56152,1694127199443,,,,
Fix,GT,37.3817962000,-121.9020743000,-14.126049574433267,0.00043705903,0.1,263.56076,1694127200443,,,,
Fix,GT,37.3817962000,-121.9020743000,-14.126049574433267,0.0,0.1,263.5613,1694127201443,,,,
Fix,GT,37.3817962000,-121.9020743000,-14.126049995422363,0.00056294113,0.1,263.5612,1694127202443,,,,
Fix,GT,37.3817962000,-121.9020743000,-14.126049995422363,0.0,0.1,263.5611,1694127203443,,,,
Fix,GT,37.3817962000,-121.9020743000,-14.126049995422363,0.001,0.1,263.5612,1694127204443,,,,
Fix,GT,37.3817962000,-121.9020743000,-14.126049995422363,0.0,0.1,263.56122,1694127205443,,,,
Fix,GT,37.3817962000,-121.9020743000,-14.126049995422363,0.00056294136,0.1,263.56128,1694127206443,,,,
Fix,GT,37.3817962000,-121.9020743000,-14.126049995422363,0.0,0.1,263.5611,1694127207443,,,,
Fix,GT,37.3817962000,-121.9020743000,-14.126049995422363,0.0,0.1,263.56094,1694127208443,,,,
Fix,GT,37.3817962000,-121.9020743000,-14.126049995422363,0.00043705877,0.1,263.56094,1694127209443,,,,
Fix,GT,37.3817962000,-121.9020743000,-14.126049995422363,0.0,0.1,263.5611,1694127210443,,,,
Fix,GT,37.3817962000,-121.9020743000,-14.126049574433267,0.001233178,0.1,263.56122,1694127211443,,,,
Fix,GT,37.3817962000,-121.9020743000,-14.126049995422363,0.0,0.1,263.56125,1694127212443,,,,
Fix,GT,37.3817962000,-121.9020743000,-14.126049574433267,0.00043705868,0.1,263.56146,1694127213443,,,,
Fix,GT,37.3817962000,-121.9020743000,-14.126049995422363,0.0,0.1,263.56155,1694127214443,,,,
Fix,GT,37.3817962000,-121.9020743000,-14.126049995422363,0.0005629415,0.1,263.56146,1694127215443,,,,
Fix,GT,37.3817962000,-121.9020743000,-14.126049574433267,0.001,0.1,263.5614,1694127216443,,,,
Fix,GT,37.3817962000,-121.9020743000,-14.126049995422363,0.0,0.1,-96.438736,1694127217443,,,,
Fix,GT,37.3817962000,-121.9020743000,-14.126049995422363,0.001,0.1,263.56134,1694127218443,,,,
Fix,GT,37.3817962000,-121.9020743000,-14.126049574433267,0.001,0.1,263.56155,1694127219443,,,,
Fix,GT,37.3817962000,-121.9020743000,-14.126049574433267,0.001,0.1,263.5617,1694127220443,,,,
Fix,GT,37.3817962000,-121.9020743000,-14.126049574433267,0.0,0.1,263.5614,1694127221443,,,,
Fix,GT,37.3817962000,-121.9020743000,-14.126049995422363,0.00056294154,0.1,263.56104,1694127222443,,,,
Fix,GT,37.3817962000,-121.9020743000,-14.126049995422363,0.00056294154,0.1,263.56088,1694127223443,,,,
Fix,GT,37.3817962000,-121.9020743000,-14.126049995422363,0.0,0.1,-96.43908,1694127224443,,,,
Fix,GT,37.3817962000,-121.9020743000,-14.126049574433267,0.0,0.1,263.5611,1694127225443,,,,
Fix,GT,37.3817962000,-121.9020743000,-14.126049995422363,0.0,0.1,263.56097,1694127226443,,,,
Fix,GT,37.3817962000,-121.9020743000,-14.126049574433267,0.0005629417,0.1,263.561,1694127227443,,,,
Fix,GT,37.3817962000,-121.9020743000,-14.125049591064453,0.0,0.1,263.5611,1694127228443,,,,
Fix,GT,37.3817962000,-121.9020743000,-14.125049170105171,0.00043705845,0.1,263.56082,1694127229443,,,,
Fix,GT,37.3817962000,-121.9020743000,-14.125049591064453,0.00043705836,0.1,263.56076,1694127230443,,,,
Fix,GT,37.3817962000,-121.9020743000,-14.124048765777076,0.001,0.1,263.5608,1694127231443,,,,
Fix,GT,37.3817962000,-121.9020743000,-14.12304973602295,0.0027574701,0.1,263.564,1694127232443,,,,
Fix,GT,37.3817959000,-121.9020775000,-14.131923205106403,0.8022516,0.1,263.60117,1694127233443,,,,
Fix,GT,37.3817943000,-121.9020953000,-14.136486084251288,2.2589855,0.1,263.7111,1694127234443,,,,
Fix,GT,37.3817918000,-121.9021250000,-14.142360672716904,2.96064,0.1,263.83542,1694127235443,,,,
Fix,GT,37.3817888000,-121.9021637000,-14.157923226742696,3.988454,0.1,264.45496,1694127236443,,,,
Fix,GT,37.3817856000,-121.9022155000,-14.174486189811063,5.278929,0.1,265.70044,1694127237443,,,,
Fix,GT,37.3817829000,-121.9022813000,-14.198234607495465,6.208637,0.1,267.3111,1694127238443,,,,
Fix,GT,37.3817822000,-121.9023506000,-14.25123452717969,5.9836626,0.1,269.78485,1694127239443,,,,
Fix,GT,37.3817837000,-121.9024173000,-14.292798062214274,5.8909388,0.1,271.91132,1694127240443,,,,
Fix,GT,37.3817872000,-121.9024865000,-14.336360916321041,6.4129333,0.1,273.96915,1694127241443,,,,
Fix,GT,37.3817901000,-121.9025611000,-14.381175508077433,6.760983,0.1,270.90497,1694127242443,,,,
Fix,GT,37.3817798000,-121.9026382000,-14.426546136158777,7.053091,0.1,257.00046,1694127243443,,,,
Fix,GT,37.3817518000,-121.9027123000,-14.447863630552547,7.3789196,0.1,240.42409,1694127244443,,,,
Fix,GT,37.3817054000,-121.9027764000,-14.41230104433589,7.8978977,0.1,223.46602,1694127245443,,,,
Fix,GT,37.3816441000,-121.9028282000,-14.40661236154574,8.492513,0.1,210.84755,1694127246443,,,,
Fix,GT,37.3815710000,-121.9028689000,-14.432234804131127,9.219101,0.1,201.4216,1694127247443,,,,
Fix,GT,37.3814881000,-121.9028994000,-14.457671655513252,9.902285,0.1,194.47667,1694127248443,,,,
Fix,GT,37.3813993000,-121.9029251000,-14.51479807791685,10.173025,0.1,192.37602,1694127249443,,,,
Fix,GT,37.3813109000,-121.9029505000,-14.47705025902539,9.962357,0.1,193.85056,1694127250443,,,,
Fix,GT,37.3812276000,-121.9029873000,-14.40411571569274,9.670005,0.1,203.03992,1694127251443,,,,
Fix,GT,37.3811555000,-121.9030449000,-14.323300871689383,9.498744,0.1,217.22215,1694127252443,,,,
Fix,GT,37.3810984000,-121.9031241000,-14.22293091103711,9.516766,0.1,232.57707,1694127253443,,,,
Fix,GT,37.3810581000,-121.9032179000,-14.048434648588938,9.40431,0.1,245.6922,1694127254443,,,,
Fix,GT,37.3810360000,-121.9033188000,-13.795559907987581,9.2817745,0.1,258.79358,1694127255443,,,,
Fix,GT,37.3810333000,-121.9034250000,-13.517374565034146,9.646481,0.1,272.51776,1694127256443,,,,
Fix,GT,37.3810521000,-121.9035324000,-13.224063870247392,9.91009,0.1,286.8947,1694127257443,,,,
Fix,GT,37.3810916000,-121.9036323000,-12.920063584918466,9.877269,0.1,300.9203,1694127258443,,,,
Fix,GT,37.3811484000,-121.9037157000,-12.562878144013098,9.668032,0.1,315.25,1694127259443,,,,
Fix,GT,37.3812187000,-121.9037772000,-12.190878403412512,9.495943,0.1,329.66968,1694127260443,,,,
Fix,GT,37.3812974000,-121.9038165000,-11.839315756815836,9.356672,0.1,341.478,1694127261443,,,,
Fix,GT,37.3813765000,-121.9038442000,-11.523685612299772,8.816538,0.1,344.81604,1694127262443,,,,
Fix,GT,37.3814482000,-121.9038689000,-11.317619350402083,7.4428368,0.1,344.3613,1694127263443,,,,
Fix,GT,37.3815031000,-121.9038885000,-11.167805210150732,5.2048345,0.1,343.91864,1694127264443,,,,
Fix,GT,37.3815381000,-121.9039013000,-11.097301799378869,3.2373607,0.1,343.70596,1694127265443,,,,
Fix,GT,37.3815667000,-121.9039118000,-11.040427575253517,3.8023152,0.1,343.78284,1694127266443,,,,
Fix,GT,37.3816125000,-121.9039283000,-10.941804842563215,7.287013,0.1,343.89868,1694127267443,,,,
Fix,GT,37.3816926000,-121.9039578000,-10.776116212857914,10.785255,0.1,343.62912,1694127268443,,,,
Fix,GT,37.3817998000,-121.9039978000,-10.618242252803839,14.058321,0.1,343.45084,1694127269443,,,,
Fix,GT,37.3819329000,-121.9040467000,-10.576990131483853,16.353523,0.1,343.79633,1694127270443,,,,
Fix,GT,37.3820825000,-121.9041003000,-10.43899059687692,18.202202,0.1,344.36264,1694127271443,,,,
Fix,GT,37.3822485000,-121.9041567000,-10.38786460047072,19.950272,0.1,345.29636,1694127272443,,,,
Fix,GT,37.3824288000,-121.9042141000,-10.276360799973986,21.407671,0.1,346.16245,1694127273443,,,,
Fix,GT,37.3826229000,-121.9042726000,-10.261175624306361,22.84296,0.1,346.64053,1694127274443,,,,
Fix,GT,37.3828278000,-121.9043320000,-10.303545678274844,23.803215,0.1,347.191,1694127275443,,,,
Fix,GT,37.3830397000,-121.9043911000,-10.437043031725608,24.343403,0.1,347.8062,1694127276443,,,,
Fix,GT,37.3832575000,-121.9044493000,-10.557730862911484,25.225061,0.1,348.05795,1694127277443,,,,
Fix,GT,37.3834849000,-121.9045097000,-10.856709958014676,26.343552,0.1,348.06262,1694127278443,,,,
Fix,GT,37.3837201000,-121.9045715000,-11.141472672705731,26.883312,0.1,348.10114,1694127279443,,,,
Fix,GT,37.3839586000,-121.9046346000,-11.576835299424062,27.241192,0.1,348.07013,1694127280443,,,,
Fix,GT,37.3842005000,-121.9046985000,-12.200265893603273,27.612974,0.1,348.09793,1694127281443,,,,
Fix,GT,37.3844456000,-121.9047631000,-13.006384483000232,27.994854,0.1,348.1412,1694127282443,,,,
Fix,GT,37.3846942000,-121.9048277000,-13.982066675562919,28.363798,0.1,348.52396,1694127283443,,,,
Fix,GT,37.3849464000,-121.9048901000,-15.041755259290085,28.714346,0.1,349.18384,1694127284443,,,,
Fix,GT,37.3852023000,-121.9049507000,-15.832524328339787,29.077938,0.1,349.37527,1694127285443,,,,
Fix,GT,37.3854616000,-121.9050116000,-16.405532299231368,29.493956,0.1,349.39774,1694127286443,,,,
Fix,GT,37.3857250000,-121.9050732000,-16.68354693735523,29.929163,0.1,349.49655,1694127287443,,,,
Fix,GT,37.3859906000,-121.9051349000,-16.728236749872906,29.899128,0.1,349.6074,1694127288443,,,,
Fix,GT,37.3862538000,-121.9051964000,-16.774798411497613,29.54012,0.1,349.28967,1694127289443,,,,
Fix,GT,37.3865139000,-121.9052578000,-16.840169908788994,29.224209,0.1,349.4464,1694127290443,,,,
Fix,GT,37.3867716000,-121.9053181000,-16.89023583245671,29.003098,0.1,349.41238,1694127291443,,,,
Fix,GT,37.3870282000,-121.9053777000,-16.93305015563965,28.93359,0.1,349.44672,1694127292443,,,,
Fix,GT,37.3872843000,-121.9054388000,-16.982673282107385,28.940357,0.1,349.1349,1694127293443,,,,
Fix,GT,37.3875405000,-121.9054995000,-17.042673582742736,28.90747,0.1,349.40222,1694127294443,,,,
Fix,GT,37.3877963000,-121.9055589000,-17.06517752468818,28.824745,0.1,349.55365,1694127295443,,,,
Fix,GT,37.3880515000,-121.9056183000,-17.120362773245347,28.83482,0.1,349.47433,1694127296443,,,,
Fix,GT,37.3883082000,-121.9056781000,-17.180673239371515,29.170332,0.1,349.3878,1694127297443,,,,
Fix,GT,37.3885681000,-121.9057399000,-17.222487363093705,29.55016,0.1,349.1324,1694127298443,,,,
Fix,GT,37.3888308000,-121.9058031000,-17.2675471196348,29.775398,0.1,349.2147,1694127299443,,,,
Fix,GT,37.3890947000,-121.9058654000,-17.30479909242149,29.803545,0.1,349.50626,1694127300443,,,,
Fix,GT,37.3893587000,-121.9059266000,-17.364109030796726,29.829082,0.1,349.4068,1694127301443,,,,
Fix,GT,37.3896238000,-121.9059906000,-17.398050826729843,30.145355,0.1,348.71945,1694127302443,,,,
Fix,GT,37.3898918000,-121.9060598000,-17.453799778591815,30.575811,0.1,347.98453,1694127303443,,,,
Fix,GT,37.3901626000,-121.9061341000,-17.49692486661627,30.964348,0.1,347.28052,1694127304443,,,,
Fix,GT,37.3904358000,-121.9062104000,-17.505740189012045,31.119606,0.1,347.9352,1694127305443,,,,
Fix,GT,37.3907106000,-121.9062817000,-17.547984574837415,31.17434,0.1,348.6525,1694127306443,,,,
Fix,GT,37.3909864000,-121.9063491000,-17.61179881818242,31.209087,0.1,349.23697,1694127307443,,,,
Fix,GT,37.3912633000,-121.9064141000,-17.665545901376674,31.335682,0.1,349.44424,1694127308443,,,,
Fix,GT,37.3915410000,-121.9064794000,-17.699422360111043,31.358261,0.1,349.3657,1694127309443,,,,
Fix,GT,37.3918180000,-121.9065444000,-17.776109139931407,31.182127,0.1,349.4001,1694127310443,,,,
Fix,GT,37.3920934000,-121.9066092000,-17.82754707505387,31.028162,0.1,349.33658,1694127311443,,,,
Fix,GT,37.3923674000,-121.9066740000,-17.88116913617523,30.868607,0.1,349.18127,1694127312443,,,,
Fix,GT,37.3926398000,-121.9067393000,-17.950109447850537,30.688564,0.1,349.29526,1694127313443,,,,
Fix,GT,37.3929113000,-121.9068033000,-18.01829461977934,30.663677,0.1,349.43878,1694127314443,,,,
Fix,GT,37.3931831000,-121.9068672000,-18.08411022020755,30.703495,0.1,349.34134,1694127315443,,,,
Fix,GT,37.3934549000,-121.9069314000,-18.14373141710746,30.695713,0.1,349.31747,1694127316443,,,,
Fix,GT,37.3937256000,-121.9069957000,-18.209925296175868,30.41922,0.1,349.2162,1694127317443,,,,
Fix,GT,37.3939946000,-121.9070596000,-18.285798062454887,30.38676,0.1,349.3631,1694127318443,,,,
Fix,GT,37.3942639000,-121.9071225000,-18.352422218161678,30.406284,0.1,349.58453,1694127319443,,,,
Fix,GT,37.3945334000,-121.9071843000,-18.409984063961815,30.428764,0.1,349.6797,1694127320443,,,,
Fix,GT,37.3948033000,-121.9072458000,-18.471612903943424,30.446726,0.1,349.65924,1694127321443,,,,
Fix,GT,37.3950732000,-121.9073077000,-18.534732675510895,30.454863,0.1,349.63208,1694127322443,,,,
Fix,GT,37.3953431000,-121.9073700000,-18.598983754727442,30.4593,0.1,349.44427,1694127323443,,,,
Fix,GT,37.3956127000,-121.9074336000,-18.679546874190635,30.444977,0.1,349.3046,1694127324443,,,,
Fix,GT,37.3958821000,-121.9074972000,-18.72648813826845,30.34188,0.1,349.24835,1694127325443,,,,
Fix,GT,37.3961491000,-121.9075607000,-18.793361737698888,29.97472,0.1,349.29233,1694127326443,,,,
Fix,GT,37.3964127000,-121.9076232000,-18.844235982889018,29.58376,0.1,349.31885,1694127327443,,,,
Fix,GT,37.3966738000,-121.9076843000,-18.886051177978516,29.399242,0.1,349.5844,1694127328443,,,,
Fix,GT,37.3969339000,-121.9077442000,-18.894857696527993,29.330635,0.1,349.45737,1694127329443,,,,
Fix,GT,37.3971934000,-121.9078053000,-18.92230239297828,29.277721,0.1,349.18143,1694127330443,,,,
Fix,GT,37.3974524000,-121.9078673000,-18.9397987167348,29.223381,0.1,349.3099,1694127331443,,,,
Fix,GT,37.3977112000,-121.9079278000,-18.929799051416467,29.164137,0.1,349.4469,1694127332443,,,,
Fix,GT,37.3979693000,-121.9079880000,-18.959109614175986,29.111086,0.1,349.42172,1694127333443,,,,
Fix,GT,37.3982271000,-121.9080481000,-19.007798164976293,29.070599,0.1,349.48648,1694127334443,,,,
Fix,GT,37.3984842000,-121.9081082000,-19.04104938980788,29.01549,0.1,349.3672,1694127335443,,,,
Fix,GT,37.3987408000,-121.9081688000,-19.075236879910847,28.971453,0.1,349.39914,1694127336443,,,,
Fix,GT,37.3989974000,-121.9082288000,-19.132361928406056,28.973606,0.1,349.38535,1694127337443,,,,
Fix,GT,37.3992541000,-121.9082896000,-19.202236617467975,29.023788,0.1,349.29645,1694127338443,,,,
Fix,GT,37.3995112000,-121.9083506000,-19.25523496763816,29.059048,0.1,349.26425,1694127339443,,,,
Fix,GT,37.3997684000,-121.9084123000,-19.3136729102157,29.071838,0.1,349.1403,1694127340443,,,,
Fix,GT,37.4000257000,-121.9084746000,-19.366361106310023,29.090427,0.1,348.9467,1694127341443,,,,
Fix,GT,37.4002827000,-121.9085388000,-19.42173117326172,29.092306,0.1,348.4995,1694127342443,,,,
Fix,GT,37.4005396000,-121.9086048000,-19.487487233887407,29.12127,0.1,348.4028,1694127343443,,,,
Fix,GT,37.4007967000,-121.9086704000,-19.563353600816754,29.169472,0.1,348.6939,1694127344443,,,,
Fix,GT,37.4010542000,-121.9087340000,-19.763983560565293,29.201519,0.1,349.147,1694127345443,,,,
Fix,GT,37.4013130000,-121.9087954000,-19.75293118447115,29.223545,0.1,349.37946,1694127346443,,,,
Fix,GT,37.4015721000,-121.9088561000,-19.757984115518866,29.25449,0.1,349.382,1694127347443,,,,
Fix,GT,37.4018315000,-121.9089171000,-19.8072940338281,29.271946,0.1,349.34958,1694127348443,,,,
Fix,GT,37.4020909000,-121.9089784000,-19.92442797740614,29.291592,0.1,349.32886,1694127349443,,,,
Fix,GT,37.4023501000,-121.9090394000,-19.913487335778427,29.264753,0.1,349.32562,1694127350443,,,,
Fix,GT,37.4026091000,-121.9091010000,-19.988420698715743,29.256065,0.1,349.25323,1694127351443,,,,
Fix,GT,37.4028677000,-121.9091623000,-20.114606699029537,29.233507,0.1,349.417,1694127352443,,,,
Fix,GT,37.4031264000,-121.9092229000,-20.223732396351863,29.22486,0.1,349.41946,1694127353443,,,,
Fix,GT,37.4033852000,-121.9092837000,-20.336857066686377,29.23005,0.1,349.3651,1694127354443,,,,
Fix,GT,37.4036445000,-121.9093446000,-20.312865875280522,29.237408,0.1,349.392,1694127355443,,,,
Fix,GT,37.4039036000,-121.9094053000,-20.35054664932818,29.233616,0.1,349.373,1694127356443,,,,
Fix,GT,37.4041624000,-121.9094665000,-20.42511038391342,29.207184,0.1,349.26273,1694127357443,,,,
Fix,GT,37.4044211000,-121.9095275000,-20.50254646732418,29.19867,0.1,349.4598,1694127358443,,,,
Fix,GT,37.4046796000,-121.9095877000,-20.56236166262738,29.175245,0.1,349.43707,1694127359443,,,,
Fix,GT,37.4049379000,-121.9096484000,-20.648235648923105,29.159399,0.1,349.40616,1694127360443,,,,
Fix,GT,37.4051961000,-121.9097088000,-20.716361609401986,29.132729,0.1,349.39587,1694127361443,,,,
Fix,GT,37.4054540000,-121.9097691000,-20.764050818560975,29.074192,0.1,349.47366,1694127362443,,,,
Fix,GT,37.4057111000,-121.9098294000,-20.80967320370928,29.008055,0.1,349.35648,1694127363443,,,,
Fix,GT,37.4059679000,-121.9098899000,-20.89010931081816,28.990734,0.1,349.38687,1694127364443,,,,
Fix,GT,37.4062247000,-121.9099499000,-20.966798007914008,28.97797,0.1,349.4913,1694127365443,,,,
Fix,GT,37.4064816000,-121.9100094000,-21.050731474773784,29.024426,0.1,349.57028,1694127366443,,,,
Fix,GT,37.4067389000,-121.9100689000,-21.1444214468155,29.036282,0.1,349.51776,1694127367443,,,,
Fix,GT,37.4069960000,-121.9101291000,-21.225546029023178,29.039366,0.1,349.26822,1694127368443,,,,
Fix,GT,37.4072531000,-121.9101904000,-21.267739346443136,29.03217,0.1,349.1487,1694127369443,,,,
Fix,GT,37.4075098000,-121.9102525000,-21.302235599839037,28.988268,0.1,348.91714,1694127370443,,,,
Fix,GT,37.4077661000,-121.9103172000,-21.36511032165481,29.014723,0.1,348.30786,1694127371443,,,,
Fix,GT,37.4080210000,-121.9103846000,-21.446799253118343,28.77361,0.1,347.84564,1694127372443,,,,
Fix,GT,37.4082727000,-121.9104532000,-21.526925014725407,28.411057,0.1,347.62784,1694127373443,,,,
Fix,GT,37.4085210000,-121.9105222000,-21.607732605712954,27.98901,0.1,347.1932,1694127374443,,,,
Fix,GT,37.4087646000,-121.9105939000,-21.714168406394947,27.549667,0.1,346.3856,1694127375443,,,,
Fix,GT,37.4090035000,-121.9106680000,-21.817295535096036,27.070366,0.1,345.8171,1694127376443,,,,
Fix,GT,37.4092375000,-121.9107432000,-21.916856973463837,26.58717,0.1,345.35086,1694127377443,,,,
Fix,GT,37.4094667000,-121.9108194000,-22.048420133068362,26.032387,0.1,344.97665,1694127378443,,,,
Fix,GT,37.4096906000,-121.9108952000,-22.172546342635314,25.475527,0.1,344.82166,1694127379443,,,,
Fix,GT,37.4099100000,-121.9109695000,-22.2792947814537,24.966751,0.1,344.90836,1694127380443,,,,
Fix,GT,37.4101249000,-121.9110428000,-22.36685772561475,24.45779,0.1,344.6133,1694127381443,,,,
Fix,GT,37.4103353000,-121.9111153000,-22.45042054952603,23.992762,0.1,344.62436,1694127382443,,,,
Fix,GT,37.4105421000,-121.9111867000,-22.50923700942974,23.61143,0.1,344.6023,1694127383443,,,,
Fix,GT,37.4107459000,-121.9112569000,-22.55667228484367,23.371565,0.1,344.6618,1694127384443,,,,
Fix,GT,37.4109491000,-121.9113264000,-22.576797744314433,23.424885,0.1,344.82358,1694127385443,,,,
Fix,GT,37.4111541000,-121.9113958000,-22.613487942051677,23.734028,0.1,344.9751,1694127386443,,,,
Fix,GT,37.4113625000,-121.9114659000,-22.647799469363804,24.155174,0.1,344.94995,1694127387443,,,,
Fix,GT,37.4115741000,-121.9115376000,-22.674234669676423,24.476406,0.1,344.86118,1694127388443,,,,
Fix,GT,37.4117880000,-121.9116102000,-22.703236183816784,24.708723,0.1,344.90802,1694127389443,,,,
Fix,GT,37.4120042000,-121.9116831000,-22.722488030982447,25.02285,0.1,344.8689,1694127390443,,,,
Fix,GT,37.4122240000,-121.9117583000,-22.741799331081097,25.582092,0.1,344.67462,1694127391443,,,,
Fix,GT,37.4124489000,-121.9118360000,-22.756487750272527,26.194849,0.1,344.62552,1694127392443,,,,
Fix,GT,37.4126786000,-121.9119147000,-22.790234719834018,26.544563,0.1,344.80173,1694127393443,,,,
Fix,GT,37.4129097000,-121.9119929000,-22.81354708507115,26.618328,0.1,344.87033,1694127394443,,,,
Fix,GT,37.4131414000,-121.9120719000,-22.836924480310017,26.663431,0.1,344.79874,1694127395443,,,,
Fix,GT,37.4133731000,-121.9121502000,-22.84173806941203,26.583286,0.1,344.97693,1694127396443,,,,
Fix,GT,37.4136042000,-121.9122282000,-22.875924037208847,26.543694,0.1,344.844,1694127397443,,,,
Fix,GT,37.4138349000,-121.9123069000,-22.896739056347315,26.505524,0.1,344.75296,1694127398443,,,,
Fix,GT,37.4140650000,-121.9123854000,-22.923923689086166,26.407402,0.1,344.78665,1694127399443,,,,
Fix,GT,37.4142942000,-121.9124633000,-22.939049990801493,26.307068,0.1,344.87213,1694127400443,,,,
Fix,GT,37.4145228000,-121.9125409000,-22.92380627735679,26.248877,0.1,344.80368,1694127401443,,,,
Fix,GT,37.4147517000,-121.9126189000,-22.753488167564228,26.287457,0.1,344.66742,1694127402443,,,,
Fix,GT,37.4149804000,-121.9126975000,-22.769486724803755,26.34866,0.1,344.77637,1694127403443,,,,
Fix,GT,37.4152096000,-121.9127758000,-22.8922203879967,26.395048,0.1,344.7394,1694127404443,,,,
Fix,GT,37.4154388000,-121.9128544000,-23.045109929067337,26.391178,0.1,344.80627,1694127405443,,,,
Fix,GT,37.4156678000,-121.9129322000,-23.10911047832718,26.311478,0.1,344.87787,1694127406443,,,,
Fix,GT,37.4158960000,-121.9130097000,-23.209421131183717,26.22171,0.1,344.90845,1694127407443,,,,
Fix,GT,37.4161233000,-121.9130864000,-23.35759200554037,26.121292,0.1,345.06274,1694127408443,,,,
Fix,GT,37.4163497000,-121.9131621000,-23.543361725724935,25.97964,0.1,345.06982,1694127409443,,,,
Fix,GT,37.4165749000,-121.9132384000,-23.576924244511247,25.820343,0.1,344.6812,1694127410443,,,,
Fix,GT,37.4167988000,-121.9133158000,-23.60130218731024,25.7376,0.1,344.64124,1694127411443,,,,
Fix,GT,37.4170229000,-121.9133922000,-23.419494813997517,25.679203,0.1,344.7753,1694127412443,,,,
Fix,GT,37.4172461000,-121.9134682000,-23.37605094909668,25.62976,0.1,344.81195,1694127413443,,,,
Fix,GT,37.4174688000,-121.9135438000,-23.388362564744455,25.57254,0.1,344.85965,1694127414443,,,,
Fix,GT,37.4176909000,-121.9136193000,-23.39792515778396,25.492926,0.1,344.73972,1694127415443,,,,
Fix,GT,37.4179120000,-121.9136955000,-23.414487159174882,25.399006,0.1,344.60373,1694127416443,,,,
Fix,GT,37.4181327000,-121.9137705000,-23.452983777087866,25.3539,0.1,344.944,1694127417443,,,,
Fix,GT,37.4183530000,-121.9138446000,-23.453049914447945,25.279907,0.1,344.96527,1694127418443,,,,
Fix,GT,37.4185728000,-121.9139190000,-23.470109820916377,25.284502,0.1,344.8073,1694127419443,,,,
Fix,GT,37.4187929000,-121.9139943000,-23.476051330566406,25.340666,0.1,344.69446,1694127420443,,,,
Fix,GT,37.4190134000,-121.9140696000,-23.481613142475908,25.390045,0.1,344.75754,1694127421443,,,,
Fix,GT,37.4192343000,-121.9141451000,-23.48836154156743,25.434547,0.1,344.7791,1694127422443,,,,
Fix,GT,37.4194557000,-121.9142202000,-23.498799268379344,25.476494,0.1,344.86212,1694127423443,,,,
Fix,GT,37.4196775000,-121.9142953000,-23.493362100453226,25.544758,0.1,344.8743,1694127424443,,,,
Fix,GT,37.4199002000,-121.9143706000,-23.501487047149396,25.662035,0.1,344.86157,1694127425443,,,,
Fix,GT,37.4201241000,-121.9144464000,-23.509236992748242,25.82314,0.1,344.87985,1694127426443,,,,
Fix,GT,37.4203495000,-121.9145229000,-23.515925184669584,26.001236,0.1,344.77637,1694127427443,,,,
Fix,GT,37.4205763000,-121.9146003000,-23.53061293069959,26.171085,0.1,344.74326,1694127428443,,,,
Fix,GT,37.4208045000,-121.9146785000,-23.534176917211653,26.34571,0.1,344.65524,1694127429443,,,,
Fix,GT,37.4210343000,-121.9147577000,-23.544236135572987,26.559982,0.1,344.6377,1694127430443,,,,
Fix,GT,37.4212661000,-121.9148371000,-23.581235717040727,26.780563,0.1,344.81012,1694127431443,,,,
Fix,GT,37.4214999000,-121.9149165000,-23.638672793792693,26.985561,0.1,344.8399,1694127432443,,,,
Fix,GT,37.4217352000,-121.9149964000,-23.649924186451358,27.118015,0.1,344.82037,1694127433443,,,,
Fix,GT,37.4219718000,-121.9150769000,-23.669799492256516,27.297638,0.1,344.82953,1694127434443,,,,
Fix,GT,37.4222099000,-121.9151580000,-23.70936099797393,27.492329,0.1,344.78793,1694127435443,,,,
Fix,GT,37.4224499000,-121.9152393000,-23.75679867948611,27.67032,0.1,344.92154,1694127436443,,,,
Fix,GT,37.4226912000,-121.9153208000,-23.784108971907926,27.794773,0.1,344.86075,1694127437443,,,,
Fix,GT,37.4229333000,-121.9154034000,-23.832798892393953,27.889322,0.1,344.65277,1694127438443,,,,
Fix,GT,37.4231759000,-121.9154873000,-23.890858439594012,27.972431,0.1,344.55194,1694127439443,,,,
Fix,GT,37.4234191000,-121.9155712000,-23.934302395924647,28.000168,0.1,344.6311,1694127440443,,,,
Fix,GT,37.4236626000,-121.9156545000,-23.995798998728674,28.023827,0.1,344.8125,1694127441443,,,,
Fix,GT,37.4239063000,-121.9157368000,-24.05667289030339,28.005037,0.1,345.05176,1694127442443,,,,
Fix,GT,37.4241500000,-121.9158185000,-24.162605840260426,27.978828,0.1,344.91528,1694127443443,,,,
Fix,GT,37.4243931000,-121.9159011000,-24.27673298198374,27.936861,0.1,344.82642,1694127444443,,,,
Fix,GT,37.4246358000,-121.9159833000,-24.383479923482582,27.882778,0.1,344.86316,1694127445443,,,,
Fix,GT,37.4248781000,-121.9160657000,-24.503672661688086,27.828262,0.1,344.82782,1694127446443,,,,
Fix,GT,37.4251198000,-121.9161479000,-24.526983971055756,27.77924,0.1,344.7707,1694127447443,,,,
Fix,GT,37.4253612000,-121.9162304000,-24.62229505323876,27.733639,0.1,344.74756,1694127448443,,,,
Fix,GT,37.4256014000,-121.9163128000,-24.702984466244175,27.508045,0.1,344.71347,1694127449443,,,,
Fix,GT,37.4258393000,-121.9163941000,-24.747243150621784,27.190125,0.1,344.81003,1694127450443,,,,
Fix,GT,37.4260740000,-121.9164739000,-24.70124288833,26.79884,0.1,344.9159,1694127451443,,,,
Fix,GT,37.4263053000,-121.9165527000,-24.67047938403209,26.42324,0.1,344.84988,1694127452443,,,,
Fix,GT,37.4265332000,-121.9166315000,-24.829294946359482,26.088497,0.1,344.5714,1694127453443,,,,
Fix,GT,37.4267582000,-121.9167103000,-24.870679231547456,25.725306,0.1,344.20715,1694127454443,,,,
Fix,GT,37.4269792000,-121.9167917000,-24.894857391832716,25.3598,0.1,342.8983,1694127455443,,,,
Fix,GT,37.4271952000,-121.9168801000,-24.983731898319093,25.033052,0.1,341.1258,1694127456443,,,,
Fix,GT,37.4274063000,-121.9169743000,-25.07416884317854,24.72358,0.1,339.92093,1694127457443,,,,
Fix,GT,37.4276138000,-121.9170718000,-25.262723381449234,24.518356,0.1,339.10443,1694127458443,,,,
Fix,GT,37.4278192000,-121.9171719000,-25.509160454965354,24.408024,0.1,338.59653,1694127459443,,,,
Fix,GT,37.4280230000,-121.9172731000,-25.734791385610265,24.32167,0.1,338.40872,1694127460443,,,,
Fix,GT,37.4282266000,-121.9173740000,-25.968857530981495,24.313904,0.1,338.4315,1694127461443,,,,
Fix,GT,37.4284301000,-121.9174747000,-26.113288239535905,24.270365,0.1,338.61307,1694127462443,,,,
Fix,GT,37.4286336000,-121.9175736000,-26.274856503604553,24.225273,0.1,339.15216,1694127463443,,,,
Fix,GT,37.4288379000,-121.9176688000,-26.37467283873832,24.141495,0.1,340.19705,1694127464443,,,,
Fix,GT,37.4290435000,-121.9177581000,-26.2928640787851,24.068863,0.1,341.4843,1694127465443,,,,
Fix,GT,37.4292497000,-121.9178416000,-26.315923762986472,23.999287,0.1,342.56192,1694127466443,,,,
Fix,GT,37.4294562000,-121.9179207000,-26.32361410914109,23.934547,0.1,343.4385,1694127467443,,,,
Fix,GT,37.4296631000,-121.9179959000,-26.265116167191024,23.85991,0.1,344.33466,1694127468443,,,,
Fix,GT,37.4298701000,-121.9180660000,-26.171554714886497,23.72945,0.1,345.50018,1694127469443,,,,
Fix,GT,37.4300772000,-121.9181304000,-26.11267972837618,23.664036,0.1,346.52588,1694127470443,,,,
Fix,GT,37.4302846000,-121.9181907000,-26.018679090455976,23.588161,0.1,347.43765,1694127471443,,,,
Fix,GT,37.4304920000,-121.9182468000,-25.9126808721893,23.518108,0.1,348.17117,1694127472443,,,,
Fix,GT,37.4306996000,-121.9182988000,-25.821865264376584,23.486814,0.1,349.31876,1694127473443,,,,
Fix,GT,37.4309077000,-121.9183453000,-25.767992178783516,23.429125,0.1,350.43796,1694127474443,,,,
Fix,GT,37.4311159000,-121.9183869000,-25.73836146020585,23.378574,0.1,351.48135,1694127475443,,,,
Fix,GT,37.4313239000,-121.9184238000,-25.717176413859306,23.228283,0.1,352.3269,1694127476443,,,,
Fix,GT,37.4315307000,-121.9184573000,-25.718361770091974,23.046753,0.1,352.92398,1694127477443,,,,
Fix,GT,37.4317362000,-121.9184885000,-25.73073872447162,22.911066,0.1,353.1666,1694127478443,,,,
Fix,GT,37.4319407000,-121.9185192000,-25.778924197587287,22.819757,0.1,353.28357,1694127479443,,,,
Fix,GT,37.4321446000,-121.9185490000,-25.790739328473705,22.728546,0.1,353.32693,1694127480443,,,,
Fix,GT,37.4323479000,-121.9185789000,-25.841984434862866,22.755932,0.1,353.27402,1694127481443,,,,
Fix,GT,37.4325524000,-121.9186091000,-25.901361564305546,22.981298,0.1,353.39923,1694127482443,,,,
Fix,GT,37.4327597000,-121.9186388000,-25.95492371485659,23.37252,0.1,353.55313,1694127483443,,,,
Fix,GT,37.4329690000,-121.9186684000,-25.99810966546761,23.294838,0.1,353.48138,1694127484443,,,,
Fix,GT,37.4331762000,-121.9186992000,-26.07536290088325,22.993305,0.1,353.09174,1694127485443,,,,
Fix,GT,37.4333808000,-121.9187308000,-26.133362633964964,22.790203,0.1,353.0016,1694127486443,,,,
Fix,GT,37.4335839000,-121.9187614000,-26.18010965527668,22.626886,0.1,353.23825,1694127487443,,,,
Fix,GT,37.4337857000,-121.9187913000,-26.237673426418723,22.478409,0.1,353.28992,1694127488443,,,,
Fix,GT,37.4339860000,-121.9188208000,-26.26036237376968,22.260212,0.1,353.2781,1694127489443,,,,
