MessageType,Provider,LatitudeDegrees,LongitudeDegrees,AltitudeMeters,SpeedMps,AccuracyMeters,BearingDegrees,UnixTimeMillis,SpeedAccuracyMps,BearingAccuracyDegrees,elapsedRealtimeNanos,VerticalAccuracyMeters
Fix,GT,37.4282867000,-122.0725325000,-28.204800718879653,0.007480397,0.1,242.49963,1595024840441,,,,
Fix,GT,37.4282867000,-122.0725325000,-28.203800201416016,0.010472805,0.1,242.5008,1595024841441,,,,
Fix,GT,37.4282866000,-122.0725325000,-28.202800750732422,0.020609349,0.1,242.50157,1595024842441,,,,
Fix,GT,37.4282864000,-122.0725327000,-28.202388009423885,0.16288048,0.1,242.49815,1595024843441,,,,
Fix,GT,37.4282836000,-122.0725385000,-28.193974219825634,1.0887929,0.1,242.08572,1595024844441,,,,
Fix,GT,37.4282776000,-122.0725550000,-28.183451756144848,2.081707,0.1,244.99718,1595024845441,,,,
Fix,GT,37.4282760000,-122.0725819000,-28.23716802994238,2.7716954,0.1,261.9807,1595024846441,,,,
Fix,GT,37.4282864000,-122.0726177000,-28.197735994732284,3.9235196,0.1,287.3119,1595024847441,,,,
Fix,GT,37.4283110000,-122.0726621000,-28.228104407169667,5.8215227,0.1,304.28192,1595024848441,,,,
Fix,GT,37.4283436000,-122.0727257000,-28.297930136072637,7.448477,0.1,300.7123,1595024849441,,,,
Fix,GT,37.4283704000,-122.0728094000,-28.378168778070233,8.445973,0.1,288.22263,1595024850441,,,,
Fix,GT,37.4283843000,-122.0729091000,-28.452387160660123,9.362017,0.1,276.76468,1595024851441,,,,
Fix,GT,37.4283863000,-122.0730194000,-28.439497856781657,10.162436,0.1,269.22684,1595024852441,,,,
Fix,GT,37.4283842000,-122.0731385000,-28.345889297788062,10.919264,0.1,268.5798,1595024853441,,,,
Fix,GT,37.4283816000,-122.0732652000,-28.268257915027334,11.510683,0.1,268.64838,1595024854441,,,,
Fix,GT,37.4283814000,-122.0733981000,-28.133517842038145,11.9844475,0.1,270.29068,1595024855441,,,,
Fix,GT,37.4283829000,-122.0735353000,-28.021735680114432,12.304811,0.1,270.6237,1595024856441,,,,
Fix,GT,37.4283835000,-122.0736763000,-28.017561719760693,12.646719,0.1,269.94376,1595024857441,,,,
Fix,GT,37.4283832000,-122.0738212000,-28.068278028700206,12.991064,0.1,269.8205,1595024858441,,,,
Fix,GT,37.4283837000,-122.0739698000,-28.163690871397193,13.336519,0.1,270.18967,1595024859441,,,,
Fix,GT,37.4283840000,-122.0741224000,-28.25275610792289,13.640469,0.1,269.79065,1595024860441,,,,
Fix,GT,37.4283836000,-122.0742775000,-28.33245277090748,13.705521,0.1,269.8846,1595024861441,,,,
Fix,GT,37.4283833000,-122.0744316000,-28.417581094754837,13.595976,0.1,269.55438,1595024862441,,,,
Fix,GT,37.4283823000,-122.0745858000,-28.50247345427738,13.77899,0.1,269.45352,1595024863441,,,,
Fix,GT,37.4283819000,-122.0747438000,-28.768777466792017,14.180474,0.1,269.90143,1595024864441,,,,
Fix,GT,37.4283823000,-122.0749050000,-29.107363519563478,14.318686,0.1,270.16718,1595024865441,,,,
Fix,GT,37.4283828000,-122.0750669000,-29.44773332531986,14.364582,0.1,269.96423,1595024866441,,,,
Fix,GT,37.4283823000,-122.0752297000,-29.785124466245747,14.441652,0.1,269.48682,1595024867441,,,,
Fix,GT,37.4283813000,-122.0753935000,-29.99075697981948,14.5575485,0.1,269.4403,1595024868441,,,,
Fix,GT,37.4283802000,-122.0755588000,-30.057865895651616,14.7122135,0.1,269.71957,1595024869441,,,,
Fix,GT,37.4283812000,-122.0757257000,-30.10645293875416,14.819227,0.1,270.6202,1595024870441,,,,
Fix,GT,37.4283834000,-122.0758936000,-30.157453533608532,14.898767,0.1,270.72812,1595024871441,,,,
Fix,GT,37.4283845000,-122.0760625000,-30.209104530252716,15.026897,0.1,270.0102,1595024872441,,,,
Fix,GT,37.4283823000,-122.0762334000,-30.250690702388226,15.230147,0.1,267.8264,1595024873441,,,,
Fix,GT,37.4283725000,-122.0764059000,-30.252715694442486,15.302986,0.1,264.0651,1595024874441,,,,
Fix,GT,37.4283519000,-122.0765767000,-30.202083061448775,15.234879,0.1,259.20554,1595024875441,,,,
Fix,GT,37.4283206000,-122.0767428000,-30.14349747713618,14.986818,0.1,255.04175,1595024876441,,,,
Fix,GT,37.4282825000,-122.0769044000,-30.09191017499211,14.811375,0.1,252.08702,1595024877441,,,,
Fix,GT,37.4282400000,-122.0770613000,-30.02091013533112,14.524021,0.1,250.94142,1595024878441,,,,
Fix,GT,37.4281989000,-122.0772154000,-29.982322202630826,14.24102,0.1,252.15744,1595024879441,,,,
Fix,GT,37.4281658000,-122.0773676000,-29.96827926865126,13.56683,0.1,256.74353,1595024880441,,,,
Fix,GT,37.4281449000,-122.0775113000,-30.028103873624502,12.176657,0.1,261.08786,1595024881441,,,,
Fix,GT,37.4281327000,-122.0776378000,-30.07545190050712,10.442823,0.1,264.19482,1595024882441,,,,
Fix,GT,37.4281263000,-122.0777465000,-30.130040359571012,8.759888,0.1,266.3301,1595024883441,,,,
Fix,GT,37.4281239000,-122.0778319000,-30.176214752285375,6.342581,0.1,268.6053,1595024884441,,,,
Fix,GT,37.4281238000,-122.0778894000,-30.208279936574684,3.911075,0.1,269.91803,1595024885441,,,,
Fix,GT,37.4281237000,-122.0779237000,-30.261105466576964,2.244365,0.1,269.7702,1595024886441,,,,
Fix,GT,37.4281237000,-122.0779423000,-30.29445265765912,1.2467761,0.1,269.69598,1595024887441,,,,
Fix,GT,37.4281237000,-122.0779595000,-30.32262650270195,1.8844826,0.1,269.59564,1595024888441,,,,
Fix,GT,37.4281226000,-122.0779898000,-30.40599643281729,3.7132893,0.1,266.72867,1595024889441,,,,
Fix,GT,37.4281106000,-122.0780424000,-30.543298691680093,5.662881,0.1,251.24516,1595024890441,,,,
Fix,GT,37.4280786000,-122.0781014000,-30.55738755154107,6.78262,0.1,231.72018,1595024891441,,,,
Fix,GT,37.4280258000,-122.0781510000,-30.540865687454243,7.7300124,0.1,210.87776,1595024892441,,,,
Fix,GT,37.4279541000,-122.0781781000,-30.606626898953436,8.978305,0.1,191.44403,1595024893441,,,,
Fix,GT,37.4278655000,-122.0781842000,-30.664278407005895,10.709238,0.1,179.57182,1595024894441,,,,
Fix,GT,37.4277610000,-122.0781770000,-30.694386886956465,12.514422,0.1,175.97621,1595024895441,,,,
Fix,GT,37.4276405000,-122.0781668000,-30.731542777318225,14.205086,0.1,175.95695,1595024896441,,,,
Fix,GT,37.4275081000,-122.0781555000,-30.685214757143797,15.252094,0.1,175.71333,1595024897441,,,,
Fix,GT,37.4273666000,-122.0781408000,-30.609150069779503,16.24538,0.1,174.80713,1595024898441,,,,
Fix,GT,37.4272174000,-122.0781217000,-30.585452109421738,16.99377,0.1,173.65005,1595024899441,,,,
Fix,GT,37.4270628000,-122.0781001000,-30.52956276290206,17.526184,0.1,173.50499,1595024900441,,,,
Fix,GT,37.4269030000,-122.0780800000,-30.477453218181495,18.119839,0.1,174.80113,1595024901441,,,,
Fix,GT,37.4267383000,-122.0780654000,-30.403670905483068,18.537323,0.1,176.76373,1595024902441,,,,
Fix,GT,37.4265697000,-122.0780562000,-30.32497558086277,18.893602,0.1,177.9084,1595024903441,,,,
Fix,GT,37.4263985000,-122.0780523000,-30.259671808135863,19.063433,0.1,179.74673,1595024904441,,,,
Fix,GT,37.4262272000,-122.0780563000,-30.20367205406467,18.94958,0.1,181.67567,1595024905441,,,,
Fix,GT,37.4260574000,-122.0780648000,-30.131061251341464,18.805565,0.1,182.65184,1595024906441,,,,
Fix,GT,37.4258887000,-122.0780768000,-30.084084854108482,18.729527,0.1,183.51523,1595024907441,,,,
Fix,GT,37.4257202000,-122.0780910000,-30.065562064216692,18.7412,0.1,183.92455,1595024908441,,,,
Fix,GT,37.4255518000,-122.0781057000,-30.0431491781319,18.715315,0.1,183.89122,1595024909441,,,,
Fix,GT,37.4253840000,-122.0781211000,-29.936149615327622,18.638042,0.1,184.14235,1595024910441,,,,
Fix,GT,37.4252174000,-122.0781358000,-29.889147840098587,18.38948,0.1,183.63245,1595024911441,,,,
Fix,GT,37.4250533000,-122.0781465000,-29.8259103398525,18.102808,0.1,182.11739,1595024912441,,,,
Fix,GT,37.4248913000,-122.0781507000,-29.76686639608971,17.898775,0.1,179.9949,1595024913441,,,,
Fix,GT,37.4247304000,-122.0781490000,-29.74247688394081,17.75397,0.1,179.14914,1595024914441,,,,
Fix,GT,37.4245719000,-122.0781449000,-29.720104176918767,17.427734,0.1,178.14247,1595024915441,,,,
Fix,GT,37.4244166000,-122.0781366000,-29.652367360749338,16.947042,0.1,176.82874,1595024916441,,,,
Fix,GT,37.4242692000,-122.0781254000,-29.59232205910365,15.718325,0.1,176.12694,1595024917441,,,,
Fix,GT,37.4241343000,-122.0781135000,-29.56603838463576,14.317131,0.1,175.30115,1595024918441,,,,
Fix,GT,37.4240104000,-122.0781000000,-29.534496591898005,13.33838,0.1,174.5599,1595024919441,,,,
Fix,GT,37.4238975000,-122.0780874000,-29.47914800919665,11.647495,0.1,175.10687,1595024920441,,,,
Fix,GT,37.4238019000,-122.0780792000,-29.443039195944266,9.634397,0.1,176.40176,1595024921441,,,,
Fix,GT,37.4237256000,-122.0780749000,-29.441627973892253,7.2168336,0.1,177.58241,1595024922441,,,,
Fix,GT,37.4236714000,-122.0780731000,-29.42921332079868,4.8171954,0.1,178.34775,1595024923441,,,,
Fix,GT,37.4236386000,-122.0780725000,-29.433039843155257,2.540226,0.1,178.76074,1595024924441,,,,
Fix,GT,37.4236233000,-122.0780721000,-29.415975189858614,1.1069076,0.1,178.89067,1595024925441,,,,
Fix,GT,37.4236162000,-122.0780719000,-29.4148006439209,0.49335676,0.1,178.8906,1595024926441,,,,
Fix,GT,37.4236146000,-122.0780719000,-29.42421415943636,0.008017233,0.1,178.89696,1595024927441,,,,
Fix,GT,37.4236146000,-122.0780719000,-29.426801681518555,0.0011710552,0.1,178.89777,1595024928441,,,,
Fix,GT,37.4236146000,-122.0780719000,-29.42879970583914,0.018440116,0.1,178.89743,1595024929441,,,,
Fix,GT,37.4236145000,-122.0780718000,-29.428800582885742,0.002236068,0.1,178.89728,1595024930441,,,,
Fix,GT,37.4236145000,-122.0780718000,-29.43080051449533,0.0005840187,0.1,178.89731,1595024931441,,,,
Fix,GT,37.4236145000,-122.0780718000,-29.429800033569336,0.0020690856,0.1,178.89764,1595024932441,,,,
Fix,GT,37.4236145000,-122.0780718000,-29.429800033569336,0.0017256171,0.1,178.89885,1595024933441,,,,
Fix,GT,37.4236145000,-122.0780718000,-29.429800033569336,0.0005870366,0.1,178.89897,1595024934441,,,,
Fix,GT,37.4236145000,-122.0780718000,-29.429799156492948,0.0004129634,0.1,178.8991,1595024935441,,,,
Fix,GT,37.4236145000,-122.0780718000,-29.429800033569336,0.0008259266,0.1,178.89915,1595024936441,,,,
Fix,GT,37.4236145000,-122.0780718000,-29.429799156492948,0.0,0.1,178.89897,1595024937441,,,,
Fix,GT,37.4236145000,-122.0780718000,-29.429800910645724,0.0026185587,0.1,178.89917,1595024938441,,,,
Fix,GT,37.4236145000,-122.0780718000,-29.429799156492948,0.00058401807,0.1,178.89944,1595024939441,,,,
Fix,GT,37.4236145000,-122.0780718000,-29.429800033569336,0.0,0.1,178.89975,1595024940441,,,,
Fix,GT,37.4236145000,-122.0780718000,-29.429800033569336,0.000587037,0.1,178.8997,1595024941441,,,,
Fix,GT,37.4236145000,-122.0780718000,-29.429800910645724,0.0017536089,0.1,178.89911,1595024942441,,,,
Fix,GT,37.4236145000,-122.0780718000,-29.429799156492948,0.0005840179,0.1,178.89967,1595024943441,,,,
Fix,GT,37.4236145000,-122.0780718000,-29.429799156492948,0.000412963,0.1,178.89964,1595024944441,,,,
Fix,GT,37.4236145000,-122.0780718000,-29.429800033569336,0.0,0.1,178.89972,1595024945441,,,,
Fix,GT,37.4236145000,-122.0780718000,-29.429800910645724,0.0012431587,0.1,178.90051,1595024946441,,,,
Fix,GT,37.4236145000,-122.0780718000,-29.429799156492948,0.001,0.1,178.90059,1595024947441,,,,
Fix,GT,37.4236145000,-122.0780718000,-29.429800033569336,0.001,0.1,178.90034,1595024948441,,,,
Fix,GT,37.4236145000,-122.0780718000,-29.429800910645724,0.0010000002,0.1,178.89969,1595024949441,,,,
Fix,GT,37.4236145000,-122.0780718000,-29.429800033569336,0.0017256173,0.1,178.89981,1595024950441,,,,
Fix,GT,37.4236145000,-122.0780718000,-29.429800033569336,0.0014142136,0.1,178.89995,1595024951441,,,,
Fix,GT,37.4236145000,-122.0780718000,-29.429799156492948,0.0014142136,0.1,178.90004,1595024952441,,,,
Fix,GT,37.4236145000,-122.0780718000,-29.429800033569336,0.0025838045,0.1,178.90024,1595024953441,,,,
Fix,GT,37.4236145000,-122.0780718000,-29.428800582885742,0.0014142136,0.1,178.90044,1595024954441,,,,
Fix,GT,37.4236145000,-122.0780718000,-29.429799156492948,0.0021385807,0.1,178.90076,1595024955441,,,,
Fix,GT,37.4236145000,-122.0780718000,-29.42879970583914,0.0017256169,0.1,178.90077,1595024956441,,,,
Fix,GT,37.4236145000,-122.0780718000,-29.42780113220215,0.00058703637,0.1,178.9008,1595024957441,,,,
Fix,GT,37.4236145000,-122.0780718000,-29.426800804531524,0.0034224954,0.1,178.90092,1595024958441,,,,
Fix,GT,37.4236145000,-122.0780717000,-29.427800255185332,0.007999098,0.1,178.90118,1595024959441,,,,
Fix,GT,37.4236135000,-122.0780716000,-29.43080051449533,0.37235326,0.1,178.90578,1595024960441,,,,
Fix,GT,37.4236070000,-122.0780715000,-29.424388135842946,1.0382874,0.1,178.92525,1595024961441,,,,
Fix,GT,37.4235951000,-122.0780709000,-29.43462624778448,1.5835447,0.1,178.96184,1595024962441,,,,
Fix,GT,37.4235779000,-122.0780702000,-29.466213976092604,2.3933423,0.1,178.84035,1595024963441,,,,
Fix,GT,37.4235509000,-122.0780710000,-29.468626402204904,3.5864732,0.1,181.85625,1595024964441,,,,
Fix,GT,37.4235154000,-122.0780820000,-29.46769164613852,4.624168,0.1,195.19342,1595024965441,,,,
Fix,GT,37.4234755000,-122.0781132000,-29.527626417821466,5.918397,0.1,215.18068,1595024966441,,,,
Fix,GT,37.4234417000,-122.0781715000,-29.555756322674824,6.9956217,0.1,239.43674,1595024967441,,,,
Fix,GT,37.4234255000,-122.0782527000,-29.58608390628916,7.9343963,0.1,259.98508,1595024968441,,,,
Fix,GT,37.4234207000,-122.0783477000,-29.51990970733391,8.977795,0.1,267.32883,1595024969441,,,,
Fix,GT,37.4234163000,-122.0784547000,-29.443018686144057,9.966587,0.1,267.09216,1595024970441,,,,
Fix,GT,37.4234113000,-122.0785733000,-29.35684514541117,11.077856,0.1,266.96957,1595024971441,,,,
Fix,GT,37.4234058000,-122.0787049000,-29.24908290131691,12.247654,0.1,267.02594,1595024972441,,,,
Fix,GT,37.4234005000,-122.0788493000,-29.141496708471777,13.255833,0.1,267.42215,1595024973441,,,,
Fix,GT,37.4233956000,-122.0790026000,-29.0284321708001,13.838263,0.1,267.71268,1595024974441,,,,
Fix,GT,37.4233904000,-122.0791611000,-28.892194059596704,14.234966,0.1,267.29572,1595024975441,,,,
Fix,GT,37.4233833000,-122.0793243000,-28.785431280312878,14.684876,0.1,266.37302,1595024976441,,,,
Fix,GT,37.4233742000,-122.0794925000,-28.668670253616085,15.208382,0.1,265.80847,1595024977441,,,,
Fix,GT,37.4233631000,-122.0796676000,-28.525257081788766,15.876623,0.1,265.00485,1595024978441,,,,
Fix,GT,37.4233498000,-122.0798493000,-28.413018867544906,16.380602,0.1,264.4116,1595024979441,,,,
Fix,GT,37.4233347000,-122.0800362000,-28.31084645336881,16.91962,0.1,263.6847,1595024980441,,,,
Fix,GT,37.4233163000,-122.0802298000,-28.255908920141337,17.574854,0.1,262.71152,1595024981441,,,,
Fix,GT,37.4232952000,-122.0804296000,-28.126560933546443,18.104607,0.1,262.09857,1595024982441,,,,
Fix,GT,37.4232731000,-122.0806352000,-28.25093196834257,18.628197,0.1,262.75342,1595024983441,,,,
Fix,GT,37.4232533000,-122.0808473000,-28.323930237346133,19.211075,0.1,263.32935,1595024984441,,,,
Fix,GT,37.4232335000,-122.0810666000,-28.450756798321436,19.830261,0.1,263.5325,1595024985441,,,,
Fix,GT,37.4232130000,-122.0812917000,-28.60575669872776,20.209263,0.1,263.22812,1595024986441,,,,
Fix,GT,37.4231923000,-122.0815193000,-28.7684721356747,20.268063,0.1,263.57364,1595024987441,,,,
Fix,GT,37.4231728000,-122.0817458000,-28.944582313246883,20.066895,0.1,263.87485,1595024988441,,,,
Fix,GT,37.4231540000,-122.0819714000,-29.10623477666701,20.139091,0.1,263.98795,1595024989441,,,,
Fix,GT,37.4231358000,-122.0821988000,-29.2822345072301,20.342113,0.1,264.34586,1595024990441,,,,
Fix,GT,37.4231191000,-122.0824294000,-29.44099535055284,20.64605,0.1,265.22363,1595024991441,,,,
Fix,GT,37.4231056000,-122.0826629000,-29.617996281064734,20.799889,0.1,266.31433,1595024992441,,,,
Fix,GT,37.4230961000,-122.0828981000,-29.757517583295794,20.896236,0.1,267.62183,1595024993441,,,,
Fix,GT,37.4230907000,-122.0831342000,-29.825865530396754,20.928034,0.1,269.0004,1595024994441,,,,
Fix,GT,37.4230894000,-122.0833706000,-29.878213516119217,20.946661,0.1,270.08194,1595024995441,,,,
Fix,GT,37.4230930000,-122.0836076000,-29.932454034729346,21.026302,0.1,271.70346,1595024996441,,,,
Fix,GT,37.4231017000,-122.0838453000,-29.865084974181116,21.093729,0.1,273.27933,1595024997441,,,,
Fix,GT,37.4231153000,-122.0840832000,-29.79784508580269,21.150156,0.1,274.74078,1595024998441,,,,
Fix,GT,37.4231334000,-122.0843211000,-29.732973731216475,21.148956,0.1,275.88016,1595024999441,,,,
Fix,GT,37.4231551000,-122.0845581000,-29.662149438421693,21.118269,0.1,277.24048,1595025000441,,,,
Fix,GT,37.4231816000,-122.0847945000,-29.559128213305485,21.130322,0.1,278.35635,1595025001441,,,,
Fix,GT,37.4232115000,-122.0850297000,-29.246044288513247,21.000162,0.1,279.61874,1595025002441,,,,
Fix,GT,37.4232454000,-122.0852615000,-28.67976260019543,20.739822,0.1,280.876,1595025003441,,,,
Fix,GT,37.4232823000,-122.0854898000,-27.908762695652285,20.489342,0.1,281.78064,1595025004441,,,,
Fix,GT,37.4233216000,-122.0857148000,-27.13900180798447,20.302229,0.1,282.57324,1595025005441,,,,
Fix,GT,37.4233616000,-122.0859380000,-26.49391326420141,20.204124,0.1,282.68408,1595025006441,,,,
Fix,GT,37.4234031000,-122.0861612000,-26.110411428962948,20.411545,0.1,283.34805,1595025007441,,,,
Fix,GT,37.4234471000,-122.0863866000,-25.887257730166255,20.674194,0.1,283.9817,1595025008441,,,,
Fix,GT,37.4234931000,-122.0866140000,-25.907561893154252,20.876808,0.1,284.14307,1595025009441,,,,
Fix,GT,37.4235390000,-122.0868437000,-26.055843408264877,21.04752,0.1,283.79492,1595025010441,,,,
Fix,GT,37.4235841000,-122.0870753000,-26.483035692930855,21.087189,0.1,283.6147,1595025011441,,,,
Fix,GT,37.4236293000,-122.0873064000,-27.061121039404895,21.04378,0.1,283.66058,1595025012441,,,,
Fix,GT,37.4236743000,-122.0875371000,-27.834013106715474,20.98905,0.1,283.52945,1595025013441,,,,
Fix,GT,37.4237188000,-122.0877674000,-28.605840170252122,20.94968,0.1,283.4681,1595025014441,,,,
Fix,GT,37.4237630000,-122.0879971000,-29.256515358616014,20.860422,0.1,283.35556,1595025015441,,,,
Fix,GT,37.4238059000,-122.0882254000,-29.588667763282956,20.639786,0.1,282.8134,1595025016441,,,,
Fix,GT,37.4238470000,-122.0884511000,-29.77034304463018,20.333328,0.1,282.65137,1595025017441,,,,
Fix,GT,37.4238865000,-122.0886721000,-29.829866946153516,19.575699,0.1,282.301,1595025018441,,,,
Fix,GT,37.4239218000,-122.0888809000,-29.8643878727446,18.149204,0.1,281.05453,1595025019441,,,,
Fix,GT,37.4239477000,-122.0890748000,-29.923518007435177,16.644072,0.1,277.5709,1595025020441,,,,
Fix,GT,37.4239610000,-122.0892540000,-29.975627284743098,15.165464,0.1,273.08975,1595025021441,,,,
Fix,GT,37.4239622000,-122.0894174000,-30.036454154652063,13.787188,0.1,268.2288,1595025022441,,,,
Fix,GT,37.4239530000,-122.0895647000,-29.984497043693864,12.251038,0.1,263.3035,1595025023441,,,,
Fix,GT,37.4239365000,-122.0896892000,-29.87690998777407,10.001235,0.1,258.4841,1595025024441,,,,
Fix,GT,37.4239173000,-122.0897845000,-29.79773545725851,7.309689,0.1,254.38133,1595025025441,,,,
Fix,GT,37.4239014000,-122.0898481000,-29.734735830991667,4.442326,0.1,251.94675,1595025026441,,,,
Fix,GT,37.4238920000,-122.0898821000,-29.70438713806095,2.1650019,0.1,250.97813,1595025027441,,,,
Fix,GT,37.4238876000,-122.0898981000,-29.69838829189439,0.9405688,0.1,250.53165,1595025028441,,,,
Fix,GT,37.4238863000,-122.0899028000,-29.701214598298975,0.030699154,0.1,250.47414,1595025029441,,,,
Fix,GT,37.4238862000,-122.0899033000,-29.70821368262841,0.10760695,0.1,250.47044,1595025030441,,,,
Fix,GT,37.4238859000,-122.0899044000,-29.70762674720652,0.03681934,0.1,250.45924,1595025031441,,,,
Fix,GT,37.4238859000,-122.0899043000,-29.711801528930664,0.0030244053,0.1,250.4585,1595025032441,,,,
Fix,GT,37.4238859000,-122.0899045000,-29.719451829053924,0.1624395,0.1,250.45662,1595025033441,,,,
Fix,GT,37.4238830000,-122.0899151000,-29.713735913899882,2.0338478,0.1,250.38899,1595025034441,,,,
Fix,GT,37.4238731000,-122.0899487000,-29.629496596636727,4.3914227,0.1,249.63908,1595025035441,,,,
Fix,GT,37.4238554000,-122.0900067000,-29.40241192310475,6.493026,0.1,249.07227,1595025036441,,,,
Fix,GT,37.4238305000,-122.0900882000,-29.152302398641723,8.904231,0.1,248.8495,1595025037441,,,,
Fix,GT,37.4237978000,-122.0901936000,-29.125952839918284,11.120275,0.1,248.50177,1595025038441,,,,
Fix,GT,37.4237575000,-122.0903206000,-29.300646231918734,12.915905,0.1,248.01196,1595025039441,,,,
Fix,GT,37.4237111000,-122.0904647000,-29.309909656437867,14.477005,0.1,247.65372,1595025040441,,,,
Fix,GT,37.4236568000,-122.0906203000,-29.274039485948038,15.520392,0.1,244.83408,1595025041441,,,,
Fix,GT,37.4235909000,-122.0907807000,-29.317148180766367,16.383757,0.1,240.78535,1595025042441,,,,
Fix,GT,37.4235104000,-122.0909412000,-29.37051830647829,17.154934,0.1,234.66196,1595025043441,,,,
Fix,GT,37.4234106000,-122.0910948000,-29.54882304238032,17.914082,0.1,227.56873,1595025044441,,,,
Fix,GT,37.4232928000,-122.0912388000,-29.739472245798424,18.573692,0.1,221.13304,1595025045441,,,,
Fix,GT,37.4231587000,-122.0913697000,-29.87399608767646,19.10061,0.1,214.70987,1595025046441,,,,
Fix,GT,37.4230104000,-122.0914855000,-29.869780714124943,19.633478,0.1,209.2801,1595025047441,,,,
Fix,GT,37.4228509000,-122.0915877000,-29.667824824046363,20.114685,0.1,205.25241,1595025048441,,,,
Fix,GT,37.4226846000,-122.0916827000,-29.29121704169438,20.333801,0.1,203.69438,1595025049441,,,,
Fix,GT,37.4225165000,-122.0917732000,-28.48087196360507,20.204552,0.1,202.60562,1595025050441,,,,
Fix,GT,37.4223493000,-122.0918607000,-27.624219507562202,19.985737,0.1,202.53195,1595025051441,,,,
Fix,GT,37.4221846000,-122.0919475000,-26.583438770924545,19.67445,0.1,202.75099,1595025052441,,,,
Fix,GT,37.4220229000,-122.0920339000,-25.451591203528892,19.32344,0.1,203.08131,1595025053441,,,,
Fix,GT,37.4218645000,-122.0921192000,-24.245936651029297,18.986794,0.1,203.08263,1595025054441,,,,
Fix,GT,37.4217088000,-122.0922032000,-23.477892442294092,18.561022,0.1,203.18835,1595025055441,,,,
Fix,GT,37.4215575000,-122.0922845000,-22.823195873200575,17.996117,0.1,203.00418,1595025056441,,,,
Fix,GT,37.4214105000,-122.0923626000,-22.32528261797819,17.454521,0.1,202.76784,1595025057441,,,,
Fix,GT,37.4212678000,-122.0924389000,-22.000954282917405,17.013765,0.1,203.14407,1595025058441,,,,
Fix,GT,37.4211286000,-122.0925146000,-21.887735690439968,16.659992,0.1,203.50702,1595025059441,,,,
Fix,GT,37.4209935000,-122.0925890000,-21.972582367247924,15.977023,0.1,203.631,1595025060441,,,,
Fix,GT,37.4208657000,-122.0926588000,-22.177429093627893,14.975756,0.1,203.11967,1595025061441,,,,
Fix,GT,37.4207434000,-122.0927233000,-22.54814680321988,14.62771,0.1,202.46738,1595025062441,,,,
Fix,GT,37.4206215000,-122.0927861000,-23.034385234058675,14.634674,0.1,202.1131,1595025063441,,,,
Fix,GT,37.4205002000,-122.0928480000,-23.661579271537676,14.323383,0.1,202.0308,1595025064441,,,,
Fix,GT,37.4203830000,-122.0929072000,-24.3255995897116,13.709215,0.1,201.78734,1595025065441,,,,
Fix,GT,37.4202708000,-122.0929630000,-25.063644232767274,13.0219,0.1,201.5615,1595025066441,,,,
Fix,GT,37.4201657000,-122.0930154000,-25.76588349423264,12.083536,0.1,201.64137,1595025067441,,,,
Fix,GT,37.4200702000,-122.0930626000,-26.29086236126318,10.556517,0.1,201.37143,1595025068441,,,,
Fix,GT,37.4199854000,-122.0931041000,-26.710667737767608,9.692445,0.1,201.55234,1595025069441,,,,
Fix,GT,37.4199080000,-122.0931434000,-27.03612582876292,8.803665,0.1,202.52211,1595025070441,,,,
Fix,GT,37.4198393000,-122.0931792000,-27.251581700033512,7.802725,0.1,202.95445,1595025071441,,,,
Fix,GT,37.4197801000,-122.0932153000,-27.41971305149491,6.7970834,0.1,208.62709,1595025072441,,,,
Fix,GT,37.4197386000,-122.0932594000,-27.581886866071727,5.375472,0.1,225.0725,1595025073441,,,,
Fix,GT,37.4197200000,-122.0933094000,-27.713343908239835,4.596325,0.1,248.23315,1595025074441,,,,
Fix,GT,37.4197165000,-122.0933575000,-27.754039859842408,3.849116,0.1,265.79315,1595025075441,,,,
Fix,GT,37.4197224000,-122.0933950000,-27.803627465627585,3.0498996,0.1,280.7151,1595025076441,,,,
Fix,GT,37.4197308000,-122.0934198000,-27.847453027020038,1.7491289,0.1,290.65237,1595025077441,,,,
Fix,GT,37.4197359000,-122.0934310000,-27.875627140639153,0.5987276,0.1,295.36224,1595025078441,,,,
Fix,GT,37.4197374000,-122.0934349000,-27.888213756878486,0.30598643,0.1,296.98752,1595025079441,,,,
Fix,GT,37.4197394000,-122.0934391000,-27.89962730872412,0.6782176,0.1,298.76822,1595025080441,,,,
Fix,GT,37.4197466000,-122.0934509000,-27.93486563149645,2.1062844,0.1,304.0746,1595025081441,,,,
Fix,GT,37.4197654000,-122.0934727000,-27.984041317354922,3.557304,0.1,315.6782,1595025082441,,,,
Fix,GT,37.4197973000,-122.0934943000,-28.04828009059878,4.554062,0.1,332.1709,1595025083441,,,,
Fix,GT,37.4198417000,-122.0935055000,-28.122278659854828,5.5114784,0.1,350.05112,1595025084441,,,,
Fix,GT,37.4198925000,-122.0935090000,-28.174517513365345,5.689433,0.1,357.52493,1595025085441,,,,
Fix,GT,37.4199440000,-122.0935104000,-28.253040425460824,5.934136,0.1,358.9855,1595025086441,,,,
Fix,GT,37.4200017000,-122.0935114000,-28.296690357694274,6.8746142,0.1,359.3205,1595025087441,,,,
Fix,GT,37.4200670000,-122.0935117000,-28.350213650663818,7.4581842,0.1,359.928,1595025088441,,,,
Fix,GT,37.4201351000,-122.0935105000,-28.401866654017113,7.8451624,0.1,1.0407141,1595025089441,,,,
Fix,GT,37.4202106000,-122.0935076000,-28.485343277205175,8.92421,0.1,1.7346798,1595025090441,,,,
Fix,GT,37.4202960000,-122.0935048000,-28.58551675191336,9.97185,0.1,0.8637694,1595025091441,,,,
Fix,GT,37.4203889000,-122.0935064000,-28.678104475887267,10.55724,0.1,357.9617,1595025092441,,,,
Fix,GT,37.4204858000,-122.0935149000,-28.759756132946166,10.953394,0.1,354.77225,1595025093441,,,,
Fix,GT,37.4205857000,-122.0935291000,-28.831627304990207,11.401526,0.1,352.9591,1595025094441,,,,
Fix,GT,37.4206903000,-122.0935469000,-28.904801276469243,12.009997,0.1,351.75818,1595025095441,,,,
Fix,GT,37.4207990000,-122.0935677000,-28.94527775741716,12.299944,0.1,351.14426,1595025096441,,,,
Fix,GT,37.4209073000,-122.0935890000,-28.961801528930664,11.90558,0.1,350.88837,1595025097441,,,,
Fix,GT,37.4210099000,-122.0936094000,-28.96980094909668,11.018642,0.1,351.3736,1595025098441,,,,
Fix,GT,37.4210998000,-122.0936208000,-29.01217063436826,8.979638,0.1,356.11078,1595025099441,,,,
Fix,GT,37.4211706000,-122.0936176000,-29.056627765705343,6.775131,0.1,4.46535,1595025100441,,,,
Fix,GT,37.4212199000,-122.0936057000,-29.057105056847433,4.3020787,0.1,12.26661,1595025101441,,,,
Fix,GT,37.4212457000,-122.0935947000,-29.085866695024208,1.8385898,0.1,17.953415,1595025102441,,,,
Fix,GT,37.4212539000,-122.0935906000,-29.10621425040756,0.3110944,0.1,19.698177,1595025103441,,,,
Fix,GT,37.4212544000,-122.0935905000,-29.11579998982546,0.013212154,0.1,19.81435,1595025104441,,,,
Fix,GT,37.4212544000,-122.0935906000,-29.117801666259766,0.008435855,0.1,19.81286,1595025105441,,,,
Fix,GT,37.4212544000,-122.0935907000,-29.117801666259766,0.0054129814,0.1,19.812672,1595025106441,,,,
Fix,GT,37.4212544000,-122.0935907000,-29.117801666259766,0.0040722652,0.1,19.812925,1595025107441,,,,
Fix,GT,37.4212544000,-122.0935907000,-29.11880111694336,0.0021385765,0.1,19.817202,1595025108441,,,,
Fix,GT,37.4212544000,-122.0935907000,-29.119800567626953,0.0017255943,0.1,19.820805,1595025109441,,,,
Fix,GT,37.4212544000,-122.0935907000,-29.119800567626953,0.00041298202,0.1,19.820745,1595025110441,,,,
Fix,GT,37.4212544000,-122.0935907000,-29.119800567626953,0.00082596415,0.1,19.820377,1595025111441,,,,
Fix,GT,37.4212544000,-122.0935907000,-29.120800018310547,0.0005840449,0.1,19.820276,1595025112441,,,,
Fix,GT,37.4212544000,-122.0935907000,-29.120799150443077,0.0012431507,0.1,19.820572,1595025113441,,,,
Fix,GT,37.4212544000,-122.0935907000,-29.120800018310547,0.0018966567,0.1,19.82036,1595025114441,,,,
Fix,GT,37.4212544000,-122.0935907000,-29.120799150443077,0.00092345657,0.1,19.820246,1595025115441,,,,
Fix,GT,37.4212544000,-122.0935907000,-29.120799150443077,0.0014129824,0.1,19.821785,1595025116441,,,,
Fix,GT,37.4212544000,-122.0935907000,-29.120800018310547,0.0011710629,0.1,19.821741,1595025117441,,,,
Fix,GT,37.4212544000,-122.0935907000,-29.120799150443077,0.0014142136,0.1,19.821655,1595025118441,,,,
Fix,GT,37.4212544000,-122.0935907000,-29.120800018310547,0.002236068,0.1,19.821741,1595025119441,,,,
Fix,GT,37.4212544000,-122.0935907000,-29.120799150443077,0.002236068,0.1,19.820354,1595025120441,,,,
Fix,GT,37.4212544000,-122.0935907000,-29.120799150443077,0.002138576,0.1,19.820631,1595025121441,,,,
Fix,GT,37.4212544000,-122.0935907000,-29.120800018310547,0.0012431507,0.1,19.820698,1595025122441,,,,
Fix,GT,37.4212544000,-122.0935907000,-29.120800018310547,0.0033122662,0.1,19.820667,1595025123441,,,,
Fix,GT,37.4212544000,-122.0935908000,-29.11979969978927,0.009345422,0.1,19.820604,1595025124441,,,,
Fix,GT,37.4212544000,-122.0935908000,-29.11979969978927,0.014752673,0.1,19.820642,1595025125441,,,,
Fix,GT,37.4212547000,-122.0935908000,-29.121212693839936,0.15957814,0.1,19.874565,1595025126441,,,,
Fix,GT,37.4212589000,-122.0935888000,-29.133625699073377,0.85746753,0.1,20.604145,1595025127441,,,,
Fix,GT,37.4212685000,-122.0935841000,-29.147040598708372,1.4312123,0.1,21.636068,1595025128441,,,,
Fix,GT,37.4212829000,-122.0935732000,-29.14197411717487,2.4221845,0.1,28.871145,1595025129441,,,,
Fix,GT,37.4213014000,-122.0935503000,-29.112147370686955,3.364598,0.1,43.24912,1595025130441,,,,
Fix,GT,37.4213175000,-122.0935130000,-29.098322491049714,4.292943,0.1,62.010693,1595025131441,,,,
Fix,GT,37.4213241000,-122.0934573000,-29.014366588934706,5.9700193,0.1,84.324,1595025132441,,,,
Fix,GT,37.4213148000,-122.0933798000,-28.961213714384826,8.000841,0.1,102.403725,1595025133441,,,,
Fix,GT,37.4212870000,-122.0932856000,-28.915975153246563,9.829355,0.1,113.52255,1595025134441,,,,
Fix,GT,37.4212377000,-122.0931827000,-28.877213292953456,11.648224,0.1,124.626976,1595025135441,,,,
Fix,GT,37.4211680000,-122.0930701000,-28.86632214558108,13.607389,0.1,129.14587,1595025136441,,,,
Fix,GT,37.4210843000,-122.0929434000,-28.85221281466187,15.482601,0.1,129.71448,1595025137441,,,,
Fix,GT,37.4209917000,-122.0928033000,-28.85938758272232,16.672554,0.1,129.48438,1595025138441,,,,
Fix,GT,37.4208929000,-122.0926521000,-28.83473617341201,17.938423,0.1,129.17442,1595025139441,,,,
Fix,GT,37.4207864000,-122.0924899000,-28.77567134970701,19.237963,0.1,129.74782,1595025140441,,,,
Fix,GT,37.4206706000,-122.0923211000,-28.676193045794662,20.178963,0.1,131.34001,1595025141441,,,,
Fix,GT,37.4205471000,-122.0921476000,-28.492259546583682,20.964912,0.1,131.87846,1595025142441,,,,
Fix,GT,37.4204180000,-122.0919688000,-28.41084381200949,21.730995,0.1,132.13606,1595025143441,,,,
Fix,GT,37.4202843000,-122.0917856000,-28.305496394851275,22.187077,0.1,132.55417,1595025144441,,,,
Fix,GT,37.4201471000,-122.0915993000,-28.208670212790025,22.743694,0.1,132.52126,1595025145441,,,,
Fix,GT,37.4200072000,-122.0914079000,-28.116909697559322,23.177275,0.1,132.27768,1595025146441,,,,
Fix,GT,37.4198654000,-122.0912129000,-28.012128931483176,23.527313,0.1,132.25725,1595025147441,,,,
Fix,GT,37.4197217000,-122.0910153000,-27.90108319816943,23.83498,0.1,132.23955,1595025148441,,,,
Fix,GT,37.4195760000,-122.0908148000,-27.814670000387366,24.170807,0.1,132.13574,1595025149441,,,,
Fix,GT,37.4194290000,-122.0906123000,-27.70567078734291,24.274986,0.1,132.31871,1595025150441,,,,
Fix,GT,37.4192812000,-122.0904091000,-27.601432695580968,24.407133,0.1,132.0804,1595025151441,,,,
Fix,GT,37.4191331000,-122.0902038000,-27.508324015962273,24.645386,0.1,131.86832,1595025152441,,,,
Fix,GT,37.4189832000,-122.0899952000,-27.405019178682323,25.098385,0.1,131.97585,1595025153441,,,,
Fix,GT,37.4188301000,-122.0897832000,-27.271606210676282,25.463356,0.1,132.14171,1595025154441,,,,
Fix,GT,37.4186744000,-122.0895700000,-27.113780793487763,25.705845,0.1,132.60364,1595025155441,,,,
Fix,GT,37.4185161000,-122.0893561000,-26.95254107378662,25.924988,0.1,132.82774,1595025156441,,,,
Fix,GT,37.4183566000,-122.0891414000,-26.78360612326651,26.044807,0.1,132.88309,1595025157441,,,,
Fix,GT,37.4181960000,-122.0889256000,-26.627605985043374,26.216164,0.1,132.84477,1595025158441,,,,
Fix,GT,37.4180348000,-122.0887077000,-26.467366523245346,26.381239,0.1,132.5297,1595025159441,,,,
Fix,GT,37.4178733000,-122.0884880000,-26.288781115471465,26.49868,0.1,132.52348,1595025160441,,,,
Fix,GT,37.4177118000,-122.0882678000,-26.12178129157337,26.402164,0.1,132.03127,1595025161441,,,,
Fix,GT,37.4175535000,-122.0880467000,-25.962368129465517,26.228695,0.1,131.75551,1595025162441,,,,
Fix,GT,37.4173957000,-122.0878267000,-25.806780744074842,26.174166,0.1,131.88417,1595025163441,,,,
Fix,GT,37.4172375000,-122.0876070000,-25.697735908916002,26.242289,0.1,131.98749,1595025164441,,,,
Fix,GT,37.4170780000,-122.0873868000,-25.60067198702899,26.467022,0.1,132.23373,1595025165441,,,,
Fix,GT,37.4169156000,-122.0871643000,-25.552149519900354,26.924334,0.1,132.3994,1595025166441,,,,
Fix,GT,37.4167506000,-122.0869389000,-25.506497067477085,27.199392,0.1,132.38658,1595025167441,,,,
Fix,GT,37.4165849000,-122.0867111000,-25.468605565964026,27.362736,0.1,132.14914,1595025168441,,,,
Fix,GT,37.4164184000,-122.0864813000,-25.44321252322294,27.672598,0.1,132.18367,1595025169441,,,,
Fix,GT,37.4162490000,-122.0862485000,-25.40556139962564,28.118168,0.1,132.36603,1595025170441,,,,
Fix,GT,37.4160764000,-122.0860126000,-25.35832431762003,28.559467,0.1,132.53368,1595025171441,,,,
Fix,GT,37.4159013000,-122.0857743000,-25.333562407409033,28.769987,0.1,132.50275,1595025172441,,,,
Fix,GT,37.4157257000,-122.0855344000,-25.296084422197453,28.869362,0.1,132.3874,1595025173441,,,,
Fix,GT,37.4155500000,-122.0852933000,-25.272799692368494,28.944185,0.1,132.23367,1595025174441,,,,
Fix,GT,37.4153741000,-122.0850512000,-25.229322728690704,29.06707,0.1,132.19739,1595025175441,,,,
Fix,GT,37.4151971000,-122.0848076000,-25.173018031865297,29.254267,0.1,132.28946,1595025176441,,,,
Fix,GT,37.4150190000,-122.0845636000,-25.020780641709393,29.292824,0.1,132.53613,1595025177441,,,,
Fix,GT,37.4148403000,-122.0843199000,-24.784650316518764,29.305712,0.1,132.45776,1595025178441,,,,
Fix,GT,37.4146624000,-122.0840749000,-24.61984535257261,29.351532,0.1,131.98439,1595025179441,,,,
Fix,GT,37.4144887000,-122.0838265000,-24.47736669955691,29.101645,0.1,130.32608,1595025180441,,,,
Fix,GT,37.4143218000,-122.0835751000,-24.350973882536664,28.782696,0.1,128.8925,1595025181441,,,,
Fix,GT,37.4141619000,-122.0833212000,-24.271670727379615,28.490921,0.1,127.70169,1595025182441,,,,
Fix,GT,37.4140076000,-122.0830677000,-24.174388111358894,27.887194,0.1,126.88262,1595025183441,,,,
Fix,GT,37.4138611000,-122.0828173000,-24.084019258081867,27.062027,0.1,125.45287,1595025184441,,,,
Fix,GT,37.4137233000,-122.0825696000,-23.991084137061534,26.536518,0.1,124.14365,1595025185441,,,,
Fix,GT,37.4135918000,-122.0823198000,-23.931800842285156,26.506683,0.1,122.37573,1595025186441,,,,
Fix,GT,37.4134641000,-122.0820635000,-23.8626703276708,27.075338,0.1,121.4349,1595025187441,,,,
Fix,GT,37.4133356000,-122.0817967000,-23.776909506586207,28.105278,0.1,120.77428,1595025188441,,,,
Fix,GT,37.4132043000,-122.0815185000,-23.69191042211355,29.128529,0.1,120.34848,1595025189441,,,,
Fix,GT,37.4130708000,-122.0812306000,-23.601843869980087,29.785746,0.1,119.8527,1595025190441,,,,
Fix,GT,37.4129373000,-122.0809355000,-23.50460594793344,30.214046,0.1,118.96515,1595025191441,,,,
Fix,GT,37.4128070000,-122.0806341000,-23.407019225805982,30.442785,0.1,117.90027,1595025192441,,,,
Fix,GT,37.4126794000,-122.0803283000,-23.35956262276602,30.656723,0.1,117.14148,1595025193441,,,,
Fix,GT,37.4125534000,-122.0800192000,-23.337257247497348,30.789852,0.1,116.87984,1595025194441,,,,
Fix,GT,37.4124268000,-122.0797090000,-23.293323013981762,30.913559,0.1,117.142265,1595025195441,,,,
Fix,GT,37.4122987000,-122.0793977000,-23.201193682877033,31.112476,0.1,117.25495,1595025196441,,,,
Fix,GT,37.4121696000,-122.0790852000,-23.188367810283978,31.175735,0.1,117.20197,1595025197441,,,,
Fix,GT,37.4120411000,-122.0787720000,-23.08780029154417,31.186878,0.1,117.0539,1595025198441,,,,
Fix,GT,37.4119124000,-122.0784585000,-23.002495885292376,31.251627,0.1,117.177124,1595025199441,,,,
Fix,GT,37.4117830000,-122.0781442000,-22.964974241415064,31.366463,0.1,117.16007,1595025200441,,,,
Fix,GT,37.4116537000,-122.0778284000,-22.905148701988537,31.457052,0.1,117.09619,1595025201441,,,,
Fix,GT,37.4115233000,-122.0775131000,-22.81567201846957,31.419773,0.1,117.492134,1595025202441,,,,
Fix,GT,37.4113905000,-122.0771997000,-22.72686617706279,31.431446,0.1,118.33775,1595025203441,,,,
Fix,GT,37.4112536000,-122.0768893000,-22.669781449405605,31.355915,0.1,119.31794,1595025204441,,,,
Fix,GT,37.4111148000,-122.0765820000,-22.585214156197708,31.207428,0.1,119.43177,1595025205441,,,,
Fix,GT,37.4109759000,-122.0762751000,-22.534018139839247,31.322563,0.1,119.450066,1595025206441,,,,
Fix,GT,37.4108366000,-122.0759668000,-22.53145225544074,31.398548,0.1,119.51036,1595025207441,,,,
Fix,GT,37.4106958000,-122.0756595000,-22.50553938453379,31.31496,0.1,119.960014,1595025208441,,,,
Fix,GT,37.4105550000,-122.0753543000,-22.488650053816173,31.107395,0.1,119.84395,1595025209441,,,,
Fix,GT,37.4104153000,-122.0750512000,-22.439496171007647,30.87002,0.1,120.00251,1595025210441,,,,
Fix,GT,37.4102759000,-122.0747513000,-22.334953030580607,30.604645,0.1,120.235634,1595025211441,,,,
Fix,GT,37.4101376000,-122.0744541000,-22.254084483527947,30.297314,0.1,120.060776,1595025212441,,,,
Fix,GT,37.4100019000,-122.0741601000,-22.099238669348097,29.841373,0.1,119.89007,1595025213441,,,,
Fix,GT,37.4098682000,-122.0738706000,-21.899389143080896,29.376305,0.1,119.98568,1595025214441,,,,
Fix,GT,37.4097370000,-122.0735854000,-21.744607124145432,28.947872,0.1,119.815315,1595025215441,,,,
Fix,GT,37.4096082000,-122.0733042000,-21.39467414882847,28.454922,0.1,119.72845,1595025216441,,,,
Fix,GT,37.4094807000,-122.0730289000,-20.792478216269046,27.887077,0.1,120.40175,1595025217441,,,,
Fix,GT,37.4093536000,-122.0727613000,-20.01374037201367,27.250816,0.1,120.46529,1595025218441,,,,
Fix,GT,37.4092317000,-122.0724979000,-19.071763580091556,26.661945,0.1,119.66548,1595025219441,,,,
Fix,GT,37.4091137000,-122.0722386000,-17.885828974760102,26.260126,0.1,119.54294,1595025220441,,,,
Fix,GT,37.4089967000,-122.0719818000,-16.675654297332812,26.09732,0.1,119.72241,1595025221441,,,,
Fix,GT,37.4088793000,-122.0717302000,-15.276568432343026,25.498745,0.1,120.94002,1595025222441,,,,
Fix,GT,37.4087562000,-122.0714919000,-14.009175568819046,24.760866,0.1,124.6391,1595025223441,,,,
Fix,GT,37.4086243000,-122.0712705000,-12.745305909269518,24.264332,0.1,128.5279,1595025224441,,,,
Fix,GT,37.4084821000,-122.0710663000,-11.667436089325037,23.78856,0.1,133.70506,1595025225441,,,,
Fix,GT,37.4083281000,-122.0708818000,-10.733217770980616,23.536951,0.1,138.26823,1595025226441,,,,
Fix,GT,37.4081658000,-122.0707120000,-9.886085673712216,23.458267,0.1,141.84227,1595025227441,,,,
Fix,GT,37.4079941000,-122.0705592000,-9.25315043272505,23.324495,0.1,147.00949,1595025228441,,,,
Fix,GT,37.4078140000,-122.0704244000,-8.774996717456759,23.291853,0.1,151.08371,1595025229441,,,,
Fix,GT,37.4076260000,-122.0703082000,-8.4256283839415,23.32354,0.1,156.08559,1595025230441,,,,
Fix,GT,37.4074304000,-122.0702104000,-8.156867007164237,23.452175,0.1,159.80219,1595025231441,,,,
Fix,GT,37.4072284000,-122.0701304000,-7.9663869687410624,23.603512,0.1,164.83022,1595025232441,,,,
Fix,GT,37.4070203000,-122.0700715000,-7.89567002589709,23.854969,0.1,168.92198,1595025233441,,,,
Fix,GT,37.4068061000,-122.0700301000,-7.877929690842876,24.279594,0.1,172.95135,1595025234441,,,,
Fix,GT,37.4065867000,-122.0700066000,-7.969711477464074,24.634056,0.1,177.10904,1595025235441,,,,
Fix,GT,37.4063630000,-122.0699973000,-8.164538139610897,25.0895,0.1,178.46733,1595025236441,,,,
Fix,GT,37.4061343000,-122.0699906000,-8.532732489850787,25.685394,0.1,178.64514,1595025237441,,,,
Fix,GT,37.4058998000,-122.0699859000,-9.06394906343337,26.36887,0.1,179.35782,1595025238441,,,,
Fix,GT,37.4056590000,-122.0699837000,-9.631210977150715,27.055063,0.1,179.5461,1595025239441,,,,
Fix,GT,37.4054130000,-122.0699812000,-10.118254925139524,27.577864,0.1,179.31313,1595025240441,,,,
Fix,GT,37.4051628000,-122.0699786000,-10.539059984196001,27.88028,0.1,179.54706,1595025241441,,,,
Fix,GT,37.4049119000,-122.0699776000,-10.749104146380148,27.820147,0.1,179.80556,1595025242441,,,,
Fix,GT,37.4046618000,-122.0699769000,-10.837322078897103,27.6804,0.1,179.83147,1595025243441,,,,
Fix,GT,37.4044132000,-122.0699780000,-10.720843559652565,27.482506,0.1,180.31926,1595025244441,,,,
Fix,GT,37.4041661000,-122.0699804000,-10.576430733602251,27.387474,0.1,180.31836,1595025245441,,,,
Fix,GT,37.4039194000,-122.0699829000,-10.409431223606191,27.43844,0.1,180.3775,1595025246441,,,,
Fix,GT,37.4036707000,-122.0699855000,-10.243844574028202,27.804712,0.1,180.32555,1595025247441,,,,
Fix,GT,37.4034185000,-122.0699873000,-10.112017508209362,28.086304,0.1,180.19688,1595025248441,,,,
Fix,GT,37.4031655000,-122.0699892000,-9.934540102335575,28.078007,0.1,180.31369,1595025249441,,,,
Fix,GT,37.4029121000,-122.0699917000,-9.663952375146948,28.179033,0.1,180.32257,1595025250441,,,,
Fix,GT,37.4026587000,-122.0699934000,-9.480692967368384,28.054277,0.1,180.20251,1595025251441,,,,
Fix,GT,37.4024071000,-122.0699958000,-9.435451734081568,27.78209,0.1,180.48442,1595025252441,,,,
Fix,GT,37.4021579000,-122.0699992000,-9.4934078195854,27.528725,0.1,180.53166,1595025253441,,,,
Fix,GT,37.4019109000,-122.0700021000,-9.654233894959475,27.329437,0.1,180.34819,1595025254441,,,,
Fix,GT,37.4016642000,-122.0700038000,-9.868298547405914,27.489777,0.1,180.08301,1595025255441,,,,
Fix,GT,37.4014161000,-122.0700047000,-10.097646911862398,27.554237,0.1,180.09128,1595025256441,,,,
Fix,GT,37.4011678000,-122.0700048000,-10.34160328176938,27.598946,0.1,179.8007,1595025257441,,,,
Fix,GT,37.4009178000,-122.0700014000,-10.717558354476694,27.929516,0.1,178.85818,1595025258441,,,,
Fix,GT,37.4006638000,-122.0699899000,-11.199449775910637,28.449451,0.1,176.86163,1595025259441,,,,
Fix,GT,37.4004070000,-122.0699663000,-11.704907131487232,28.663736,0.1,174.63551,1595025260441,,,,
Fix,GT,37.4001496000,-122.0699310000,-12.085016483141828,28.798393,0.1,172.91177,1595025261441,,,,
Fix,GT,37.3998923000,-122.0698852000,-12.354298580962848,28.871094,0.1,170.80428,1595025262441,,,,
Fix,GT,37.3996365000,-122.0698276000,-12.567995557027729,28.778236,0.1,168.96498,1595025263441,,,,
Fix,GT,37.3993832000,-122.0697631000,-12.740886269893565,28.582588,0.1,168.06033,1595025264441,,,,
Fix,GT,37.3991324000,-122.0696962000,-12.840277864857285,28.32959,0.1,167.78183,1595025265441,,,,
Fix,GT,37.3988840000,-122.0696301000,-12.759127297840905,27.998558,0.1,167.91962,1595025266441,,,,
Fix,GT,37.3986389000,-122.0695652000,-12.497822733879957,27.617035,0.1,168.01154,1595025267441,,,,
Fix,GT,37.3983968000,-122.0695016000,-12.164584187478965,27.330164,0.1,168.15446,1595025268441,,,,
Fix,GT,37.3981554000,-122.0694387000,-11.836518568534757,27.472742,0.1,168.02882,1595025269441,,,,
Fix,GT,37.3979121000,-122.0693733000,-11.483170533352421,27.711208,0.1,167.59477,1595025270441,,,,
Fix,GT,37.3976675000,-122.0693064000,-11.13999711641182,27.935833,0.1,167.51733,1595025271441,,,,
Fix,GT,37.3974200000,-122.0692381000,-10.788105374925976,28.321184,0.1,167.4334,1595025272441,,,,
Fix,GT,37.3971692000,-122.0691686000,-10.41962789255922,28.707558,0.1,167.44302,1595025273441,,,,
Fix,GT,37.3969149000,-122.0690985000,-10.034105639928157,29.021431,0.1,167.52852,1595025274441,,,,
Fix,GT,37.3966593000,-122.0690293000,-9.669692523906292,29.00428,0.1,167.9241,1595025275441,,,,
Fix,GT,37.3964039000,-122.0689612000,-9.309692855606272,28.980759,0.1,167.80928,1595025276441,,,,
Fix,GT,37.3961482000,-122.0688918000,-8.95993147814616,29.158783,0.1,167.6011,1595025277441,,,,
Fix,GT,37.3958899000,-122.0688219000,-8.621279930134108,29.47416,0.1,167.896,1595025278441,,,,
Fix,GT,37.3956291000,-122.0687534000,-8.230344646704197,29.66502,0.1,168.37611,1595025279441,,,,
Fix,GT,37.3953660000,-122.0686900000,-7.850149295805323,29.774185,0.1,169.73254,1595025280441,,,,
Fix,GT,37.3951007000,-122.0686356000,-7.360954356049319,29.933872,0.1,171.54218,1595025281441,,,,
Fix,GT,37.3948327000,-122.0685910000,-6.529325004600082,30.054302,0.1,173.14044,1595025282441,,,,
Fix,GT,37.3945636000,-122.0685549000,-5.483195139665668,29.961063,0.1,174.50027,1595025283441,,,,
Fix,GT,37.3942956000,-122.0685268000,-4.331955905382529,29.750664,0.1,175.73808,1595025284441,,,,
Fix,GT,37.3940289000,-122.0685062000,-3.228781845490772,29.559475,0.1,177.13257,1595025285441,,,,
Fix,GT,37.3937636000,-122.0684937000,-2.1409557926164666,29.399086,0.1,178.25723,1595025286441,,,,
Fix,GT,37.3935003000,-122.0684884000,-1.0390208310286777,28.996584,0.1,179.85014,1595025287441,,,,
Fix,GT,37.3932417000,-122.0684921000,-0.08145507634902494,28.407177,0.1,181.26328,1595025288441,,,,
Fix,GT,37.3929885000,-122.0685026000,0.7965449671617257,27.826542,0.1,182.32391,1595025289441,,,,
Fix,GT,37.3927395000,-122.0685188000,1.5677628343480876,27.623201,0.1,183.65779,1595025290441,,,,
Fix,GT,37.3924909000,-122.0685400000,2.268523712471165,27.64373,0.1,183.9833,1595025291441,,,,
Fix,GT,37.3922437000,-122.0685628000,2.903154684421594,27.30722,0.1,184.23116,1595025292441,,,,
Fix,GT,37.3920002000,-122.0685852000,3.434850528090635,26.891237,0.1,184.08238,1595025293441,,,,
Fix,GT,37.3917604000,-122.0686071000,3.832460382451785,26.487164,0.1,184.09337,1595025294441,,,,
Fix,GT,37.3915239000,-122.0686291000,4.0218730209835485,26.145159,0.1,184.26071,1595025295441,,,,
Fix,GT,37.3912905000,-122.0686517000,4.16013474156955,25.814444,0.1,184.3826,1595025296441,,,,
Fix,GT,37.3910600000,-122.0686746000,4.1453089605845435,25.512783,0.1,184.50154,1595025297441,,,,
Fix,GT,37.3908321000,-122.0686974000,3.8750500975962723,25.253136,0.1,184.48691,1595025298441,,,,
Fix,GT,37.3906055000,-122.0687201000,3.481461792314235,25.177425,0.1,184.36,1595025299441,,,,
Fix,GT,37.3903792000,-122.0687419000,3.22776587997177,25.232758,0.1,184.17166,1595025300441,,,,
Fix,GT,37.3901515000,-122.0687619000,2.9804617085458602,25.431465,0.1,183.69989,1595025301441,,,,
Fix,GT,37.3899223000,-122.0687808000,2.6830927028777865,25.498512,0.1,183.8284,1595025302441,,,,
Fix,GT,37.3896933000,-122.0688012000,2.2132013572852074,25.44928,0.1,184.07288,1595025303441,,,,
Fix,GT,37.3894650000,-122.0688223000,1.7730925261440404,25.35226,0.1,184.2366,1595025304441,,,,
Fix,GT,37.3892367000,-122.0688436000,1.3134191709498069,25.527184,0.1,184.24449,1595025305441,,,,
Fix,GT,37.3890054000,-122.0688633000,0.7168760055168022,25.944002,0.1,183.3763,1595025306441,,,,
Fix,GT,37.3887705000,-122.0688770000,0.07474451374297253,26.18485,0.1,181.95624,1595025307441,,,,
Fix,GT,37.3885345000,-122.0688824000,-0.36832055900521254,26.202923,0.1,180.02232,1595025308441,,,,
Fix,GT,37.3882982000,-122.0688780000,-0.6791253900405465,26.208141,0.1,178.26656,1595025309441,,,,
Fix,GT,37.3880628000,-122.0688651000,-0.8603431648683877,26.04731,0.1,176.68875,1595025310441,,,,
Fix,GT,37.3878297000,-122.0688449000,-0.9328650875067055,25.812223,0.1,175.4259,1595025311441,,,,
Fix,GT,37.3875985000,-122.0688199000,-0.920495934466139,25.774757,0.1,174.69926,1595025312441,,,,
Fix,GT,37.3873663000,-122.0687931000,-0.7660616097094248,26.010225,0.1,174.70982,1595025313441,,,,
Fix,GT,37.3871308000,-122.0687670000,-0.38732331003065035,26.50362,0.1,174.92448,1595025314441,,,,
Fix,GT,37.3868910000,-122.0687412000,0.19039383294639478,26.830019,0.1,174.9993,1595025315441,,,,
Fix,GT,37.3866513000,-122.0687153000,0.7791548340635757,26.499573,0.1,174.8715,1595025316441,,,,
Fix,GT,37.3864156000,-122.0686889000,1.358567678280565,26.0123,0.1,174.72226,1595025317441,,,,
Fix,GT,37.3861844000,-122.0686625000,1.926741754602233,25.5072,0.1,174.69066,1595025318441,,,,
Fix,GT,37.3859577000,-122.0686368000,2.494915755803639,25.010843,0.1,174.76128,1595025319441,,,,
Fix,GT,37.3857354000,-122.0686123000,3.0282637409221422,24.55268,0.1,175.00636,1595025320441,,,,
Fix,GT,37.3855169000,-122.0685892000,3.552676757621427,24.12513,0.1,174.98367,1595025321441,,,,
Fix,GT,37.3853022000,-122.0685660000,4.075328567880661,23.73565,0.1,175.04245,1595025322441,,,,
Fix,GT,37.3850900000,-122.0685439000,4.578263827533647,23.56179,0.1,175.14885,1595025323441,,,,
Fix,GT,37.3848784000,-122.0685213000,5.065437791047543,23.646036,0.1,174.87088,1595025324441,,,,
Fix,GT,37.3846650000,-122.0684964000,5.484546771360783,23.918747,0.1,174.30212,1595025325441,,,,
Fix,GT,37.3844489000,-122.0684697000,5.878764600149211,24.315128,0.1,174.26259,1595025326441,,,,
Fix,GT,37.3842288000,-122.0684431000,6.197395405760375,24.724514,0.1,174.57137,1595025327441,,,,
Fix,GT,37.3840053000,-122.0684169000,6.396720249984938,25.071625,0.1,174.36584,1595025328441,,,,
Fix,GT,37.3837798000,-122.0683899000,6.572916893660292,25.21524,0.1,174.65234,1595025329441,,,,
Fix,GT,37.3835528000,-122.0683643000,6.569504519308353,25.371365,0.1,174.68481,1595025330441,,,,
Fix,GT,37.3833245000,-122.0683374000,6.584135121227121,25.529247,0.1,174.38799,1595025331441,,,,
Fix,GT,37.3830949000,-122.0683103000,6.51848286052423,25.667553,0.1,174.80676,1595025332441,,,,
Fix,GT,37.3828638000,-122.0682851000,6.411288062307406,25.822166,0.1,175.20193,1595025333441,,,,
Fix,GT,37.3826314000,-122.0682613000,6.33024382725884,25.909225,0.1,175.18875,1595025334441,,,,
Fix,GT,37.3823986000,-122.0682368000,6.234417683948664,25.954445,0.1,174.98233,1595025335441,,,,
Fix,GT,37.3821651000,-122.0682119000,6.146070032610865,26.078915,0.1,175.06023,1595025336441,,,,
Fix,GT,37.3819301000,-122.0681865000,6.075004781010875,26.284813,0.1,174.90163,1595025337441,,,,
Fix,GT,37.3816934000,-122.0681602000,6.000960975918815,26.4636,0.1,174.76367,1595025338441,,,,
Fix,GT,37.3814553000,-122.0681331000,5.926896025758339,26.576777,0.1,174.6614,1595025339441,,,,
Fix,GT,37.3812171000,-122.0681057000,5.840656835392082,26.472385,0.1,174.60252,1595025340441,,,,
Fix,GT,37.3809798000,-122.0680786000,5.739830960434745,26.50024,0.1,174.81432,1595025341441,,,,
Fix,GT,37.3807404000,-122.0680524000,5.644830691856214,26.873516,0.1,174.91174,1595025342441,,,,
Fix,GT,37.3804975000,-122.0680253000,5.559961155394234,27.245052,0.1,174.74864,1595025343441,,,,
Fix,GT,37.3802512000,-122.0679986000,5.4434829198727925,27.652458,0.1,175.08704,1595025344441,,,,
Fix,GT,37.3800009000,-122.0679721000,5.357069805749859,28.080212,0.1,175.03291,1595025345441,,,,
Fix,GT,37.3797473000,-122.0679448000,5.262722028567623,28.390907,0.1,174.92516,1595025346441,,,,
Fix,GT,37.3794912000,-122.0679167000,5.172069860586191,28.61993,0.1,174.93665,1595025347441,,,,
Fix,GT,37.3792339000,-122.0678893000,5.05283082528716,28.725346,0.1,175.08586,1595025348441,,,,
Fix,GT,37.3789751000,-122.0678621000,4.9202439085885175,28.925423,0.1,175.06932,1595025349441,,,,
Fix,GT,37.3787145000,-122.0678347000,4.8070698889505366,29.155293,0.1,175.17165,1595025350441,,,,
Fix,GT,37.3784513000,-122.0678085000,4.6997219627700275,29.475628,0.1,175.63522,1595025351441,,,,
Fix,GT,37.3781850000,-122.0677865000,4.753112280550795,29.751743,0.1,176.68727,1595025352441,,,,
Fix,GT,37.3779162000,-122.0677722000,5.142437766449447,29.946346,0.1,178.35829,1595025353441,,,,
Fix,GT,37.3776461000,-122.0677693000,5.683089736453809,30.03079,0.1,180.32959,1595025354441,,,,
Fix,GT,37.3773747000,-122.0677765000,6.24150316794757,30.250729,0.1,182.05875,1595025355441,,,,
Fix,GT,37.3771015000,-122.0677948000,6.7981547624981715,30.480083,0.1,183.90565,1595025356441,,,,
Fix,GT,37.3768273000,-122.0678225000,7.474871883575531,30.585043,0.1,185.16385,1595025357441,,,,
Fix,GT,37.3765529000,-122.0678567000,8.074263241123589,30.6362,0.1,186.0057,1595025358441,,,,
Fix,GT,37.3762784000,-122.0678947000,8.61526385493812,30.682007,0.1,186.1976,1595025359441,,,,
Fix,GT,37.3760032000,-122.0679317000,9.175328998837244,30.707954,0.1,185.9081,1595025360441,,,,
Fix,GT,37.3757282000,-122.0679670000,9.848350353408023,30.646582,0.1,185.62848,1595025361441,,,,
Fix,GT,37.3754539000,-122.0679994000,10.556350229334981,30.515043,0.1,184.98454,1595025362441,,,,
Fix,GT,37.3751802000,-122.0680236000,11.191915704759964,30.307467,0.1,182.80826,1595025363441,,,,
Fix,GT,37.3749087000,-122.0680323000,11.696612126064508,30.020182,0.1,179.80542,1595025364441,,,,
Fix,GT,37.3746387000,-122.0680228000,12.110850646690722,29.925985,0.1,177.00366,1595025365441,,,,
Fix,GT,37.3743697000,-122.0679990000,12.505242834732428,29.93515,0.1,174.73691,1595025366441,,,,
Fix,GT,37.3741015000,-122.0679599000,12.857177231851495,30.009052,0.1,171.81444,1595025367441,,,,
Fix,GT,37.3738344000,-122.0679031000,13.155003703373666,30.113716,0.1,168.86131,1595025368441,,,,
Fix,GT,37.3735688000,-122.0678298000,13.386460139273595,30.234165,0.1,166.24182,1595025369441,,,,
Fix,GT,37.3733053000,-122.0677409000,13.56580850390236,30.330181,0.1,163.39449,1595025370441,,,,
Fix,GT,37.3730449000,-122.0676348000,13.693503750643458,30.455631,0.1,160.38982,1595025371441,,,,
Fix,GT,37.3727880000,-122.0675115000,13.784504733845552,30.590559,0.1,157.68925,1595025372441,,,,
Fix,GT,37.3725345000,-122.0673739000,13.824786894385568,30.702583,0.1,155.5283,1595025373441,,,,
Fix,GT,37.3722833000,-122.0672273000,13.788547863234754,30.817059,0.1,154.42357,1595025374441,,,,
Fix,GT,37.3720323000,-122.0670761000,13.727548009193526,30.996689,0.1,154.06644,1595025375441,,,,
Fix,GT,37.3717801000,-122.0669235000,13.79650400409335,31.153315,0.1,154.19803,1595025376441,,,,
Fix,GT,37.3715266000,-122.0667709000,13.893916752862651,31.255497,0.1,154.12689,1595025377441,,,,
Fix,GT,37.3712739000,-122.0666180000,13.997634271987295,30.98222,0.1,154.11145,1595025378441,,,,
Fix,GT,37.3710235000,-122.0664669000,14.099265966659829,30.748276,0.1,154.21603,1595025379441,,,,
Fix,GT,37.3707742000,-122.0663156000,14.194157115109817,30.772495,0.1,153.84827,1595025380441,,,,
Fix,GT,37.3705246000,-122.0661620000,14.292917376826068,30.95768,0.1,153.62006,1595025381441,,,,
Fix,GT,37.3702736000,-122.0660067000,14.368982468549348,31.190918,0.1,153.60435,1595025382441,,,,
Fix,GT,37.3700207000,-122.0658508000,14.483569878880786,31.37874,0.1,153.78563,1595025383441,,,,
Fix,GT,37.3697655000,-122.0656945000,14.599091133507045,31.649837,0.1,153.91669,1595025384441,,,,
Fix,GT,37.3695077000,-122.0655380000,14.682264783561436,31.927303,0.1,154.14551,1595025385441,,,,
Fix,GT,37.3692479000,-122.0653817000,14.78087302883651,32.027565,0.1,154.33125,1595025386441,,,,
Fix,GT,37.3689875000,-122.0652257000,14.872156209798845,32.023407,0.1,154.29718,1595025387441,,,,
Fix,GT,37.3687275000,-122.0650694000,14.979047901819285,31.993488,0.1,154.19444,1595025388441,,,,
Fix,GT,37.3684679000,-122.0649127000,15.095090982611879,31.95858,0.1,154.05602,1595025389441,,,,
Fix,GT,37.3682089000,-122.0647555000,15.230286645385604,31.910805,0.1,154.03217,1595025390441,,,,
Fix,GT,37.3679503000,-122.0645991000,15.439221531042904,31.787497,0.1,154.20146,1595025391441,,,,
Fix,GT,37.3676937000,-122.0644448000,15.717525504925447,31.374855,0.1,154.32254,1595025392441,,,,
Fix,GT,37.3674409000,-122.0642920000,15.981829067738829,30.935562,0.1,153.91393,1595025393441,,,,
Fix,GT,37.3671919000,-122.0641399000,16.25813367298997,30.552147,0.1,154.00632,1595025394441,,,,
Fix,GT,37.3669453000,-122.0639902000,16.547111205248825,30.278248,0.1,154.1512,1595025395441,,,,
Fix,GT,37.3667002000,-122.0638435000,16.715741457848253,30.022034,0.1,154.76663,1595025396441,,,,
Fix,GT,37.3664548000,-122.0637049000,16.895763814337442,29.73051,0.1,156.54799,1595025397441,,,,
Fix,GT,37.3662083000,-122.0635787000,17.16611170632723,29.420467,0.1,158.97662,1595025398441,,,,
Fix,GT,37.3659594000,-122.0634672000,17.42835006699397,29.316095,0.1,161.46336,1595025399441,,,,
Fix,GT,37.3657077000,-122.0633675000,17.696350843651544,29.305046,0.1,163.09122,1595025400441,,,,
Fix,GT,37.3654536000,-122.0632759000,17.987177035422633,29.408485,0.1,164.7448,1595025401441,,,,
Fix,GT,37.3651964000,-122.0631959000,18.27093770128704,29.367794,0.1,167.23758,1595025402441,,,,
Fix,GT,37.3649382000,-122.0631304000,18.539112325852216,29.133371,0.1,169.58885,1595025403441,,,,
Fix,GT,37.3646806000,-122.0630780000,18.81859035081834,28.79532,0.1,171.92686,1595025404441,,,,
Fix,GT,37.3644247000,-122.0630404000,19.090176916161454,28.435673,0.1,174.4376,1595025405441,,,,
Fix,GT,37.3641704000,-122.0630169000,19.349350974082085,28.164124,0.1,176.90825,1595025406441,,,,
Fix,GT,37.3639178000,-122.0630060000,19.582764160759325,27.949888,0.1,178.75502,1595025407441,,,,
Fix,GT,37.3636666000,-122.0630039000,19.91106720608417,27.855103,0.1,180.12573,1595025408441,,,,
Fix,GT,37.3634161000,-122.0630071000,20.28200271698944,27.755396,0.1,180.7413,1595025409441,,,,
Fix,GT,37.3631668000,-122.0630123000,20.553698341844438,27.579319,0.1,180.85966,1595025410441,,,,
Fix,GT,37.3629191000,-122.0630171000,20.812937572423834,27.405941,0.1,180.77022,1595025411441,,,,
Fix,GT,37.3626726000,-122.0630222000,21.05387264863765,27.333038,0.1,180.93182,1595025412441,,,,
Fix,GT,37.3624266000,-122.0630279000,21.30487338385501,27.286774,0.1,180.82777,1595025413441,,,,
Fix,GT,37.3621810000,-122.0630322000,21.566176808812088,27.23831,0.1,180.6491,1595025414441,,,,
Fix,GT,37.3619359000,-122.0630364000,21.80417656419229,27.166382,0.1,180.77919,1595025415441,,,,
Fix,GT,37.3616911000,-122.0630411000,22.047111816113784,27.187386,0.1,180.7952,1595025416441,,,,
Fix,GT,37.3614459000,-122.0630460000,22.265807275501174,27.2462,0.1,180.76674,1595025417441,,,,
Fix,GT,37.3612002000,-122.0630506000,22.445394654903794,27.30461,0.1,180.69437,1595025418441,,,,
Fix,GT,37.3609539000,-122.0630547000,22.641046905194685,27.380592,0.1,180.6377,1595025419441,,,,
Fix,GT,37.3607069000,-122.0630588000,22.810568272325327,27.457085,0.1,180.60579,1595025420441,,,,
Fix,GT,37.3604584000,-122.0630631000,22.979872648452783,27.74797,0.1,180.74077,1595025421441,,,,
Fix,GT,37.3602075000,-122.0630682000,23.20169962538432,27.922745,0.1,180.96431,1595025422441,,,,
Fix,GT,37.3599553000,-122.0630751000,23.430285524695364,28.055653,0.1,181.30396,1595025423441,,,,
Fix,GT,37.3597022000,-122.0630804000,23.65004657742861,28.112293,0.1,180.35109,1595025424441,,,,
Fix,GT,37.3594499000,-122.0630793000,23.81439415130353,27.834965,0.1,179.17892,1595025425441,,,,
Fix,GT,37.3592004000,-122.0630725000,23.977980905714958,27.597687,0.1,178.14934,1595025426441,,,,
Fix,GT,37.3589526000,-122.0630596000,24.1412207662803,27.421593,0.1,176.97318,1595025427441,,,,
Fix,GT,37.3587068000,-122.0630408000,24.309632905065598,27.256523,0.1,175.90343,1595025428441,,,,
Fix,GT,37.3584625000,-122.0630160000,24.467979953226802,27.149742,0.1,174.77893,1595025429441,,,,
Fix,GT,37.3582196000,-122.0629859000,24.637046488848966,27.014442,0.1,173.66628,1595025430441,,,,
Fix,GT,37.3579786000,-122.0629488000,24.785154340322833,26.908533,0.1,172.15147,1595025431441,,,,
Fix,GT,37.3577383000,-122.0629020000,24.939980807248048,27.145811,0.1,169.90155,1595025432441,,,,
Fix,GT,37.3574954000,-122.0628436000,25.076155447544465,27.784407,0.1,168.53549,1595025433441,,,,
Fix,GT,37.3572462000,-122.0627784000,25.227045508831623,28.723026,0.1,167.69571,1595025434441,,,,
Fix,GT,37.3569911000,-122.0627071000,25.37822029117183,29.223679,0.1,167.04314,1595025435441,,,,
Fix,GT,37.3567327000,-122.0626329000,25.54156840881808,29.611935,0.1,167.30347,1595025436441,,,,
Fix,GT,37.3564708000,-122.0625594000,25.778350627101645,29.947666,0.1,167.0537,1595025437441,,,,
Fix,GT,37.3562064000,-122.0624813000,26.129134279562095,30.356049,0.1,166.25906,1595025438441,,,,
Fix,GT,37.3559395000,-122.0623977000,26.602328591598052,30.688976,0.1,165.57353,1595025439441,,,,
Fix,GT,37.3556711000,-122.0623104000,27.215460181013555,30.818035,0.1,165.13264,1595025440441,,,,
Fix,GT,37.3554030000,-122.0622185000,27.966654368269587,30.874353,0.1,163.96558,1595025441441,,,,
Fix,GT,37.3551367000,-122.0621192000,28.834372320614193,30.764294,0.1,162.81866,1595025442441,,,,
Fix,GT,37.3548731000,-122.0620137000,29.775612179929738,30.712437,0.1,161.59023,1595025443441,,,,
Fix,GT,37.3546112000,-122.0619010000,30.690720139048267,30.751171,0.1,160.36313,1595025444441,,,,
Fix,GT,37.3543506000,-122.0617820000,31.5274802843237,30.824768,0.1,159.38129,1595025445441,,,,
Fix,GT,37.3540906000,-122.0616583000,32.31817879002301,30.934141,0.1,158.65852,1595025446441,,,,
Fix,GT,37.3538304000,-122.0615304000,33.05265566133767,31.09254,0.1,158.18364,1595025447441,,,,
